id,name,code,parentId,geonameId,latitude,longitude,population,elevation
AD.06,Sant Julia de Loria,06,AD,3039162,42.46247,1.48247,9448,
AD.05,Ordino,05,AD,3039676,42.59758,1.52573,3467,
AD.04,La Massana,04,AD,3040131,42.55417,1.48333,8953,
AD.03,Encamp,03,AD,3040684,42.53333,1.63333,13685,
AD.02,Canillo,02,AD,3041203,42.58333,1.65833,567,
AD.07,Andorra la Vella,07,AD,3041566,42.5045,1.49414,24211,
AD.08,Escaldes-Engordany,08,AD,3338529,42.5,1.56667,16391,
AE.07,Imarat Umm al Qaywayn,07,AE,290595,25.5,55.75,56253,
AE.05,Imarat Ra's al Khaymah,05,AE,291075,25.66667,56,187535,
AE.03,Dubai,03,AE,292224,25,55.33333,1141963,
AE.06,Sharjah,06,AE,292673,25.31763,55.44057,62183,
AE.04,Fujairah,04,AE,292879,25.13333,56.25,113316,
AE.02,Ajman,02,AE,292933,25.38333,55.51667,23495,
AE.01,Abu Dhabi,01,AE,292969,23.66667,54,1395899,
AF.28,Zabul,28,AF,1121143,32.25,67.25,444585,
AF.27,Vardak,27,AF,1121863,34.25,68,34248,
AF.26,Takhar,26,AF,1123230,36.66667,69.75,9337,
AF.33,Sar-e Pol,33,AF,1127106,35.83333,66.16667,727277,
AF.32,Samangan,32,AF,1127766,36,67.66667,599331,
AF.40,Parwan,40,AF,1131054,35,68.91667,786152,
AF.29,Paktika,29,AF,1131256,32.41667,68.75,47674,
AF.36,Paktia,36,AF,1131257,33.66667,69.33333,53572,
AF.39,Oruzgan,39,AF,1131461,32.83333,66,31867,
AF.19,Nimroz,19,AF,1131821,31,62.5,23486,
AF.18,Nangarhar,18,AF,1132366,34.33333,70.41667,1538444,
AF.17,Logar,17,AF,1134561,34,69.25,3731,
AF.35,Laghman,35,AF,1135022,34.78333,70.18333,651326,
AF.24,Kunduz,24,AF,1135690,36.75,68.75,718823,
AF.34,Kunar,34,AF,1135702,34.95,71.13333,562411,
AF.14,Kapisa,14,AF,1138255,35,69.58333,472584,
AF.23,Kandahar,23,AF,1138335,31,65.75,1665487,
AF.13,Kabul,13,AF,1138957,34.5,69.41667,3138338,
AF.31,Jowzjan,31,AF,1139049,36.83333,65.83333,747618,
AF.11,Herat,11,AF,1140025,34.5,62,1382139,
AF.10,Helmand,10,AF,1140043,31,64,925666,
AF.09,Ghowr,09,AF,1141103,34,65,6572,
AF.08,Ghazni,08,AF,1141268,33.33333,67.75,11688,
AF.07,Faryab,07,AF,1142226,36.25,64.83333,913866,
AF.06,Farah,06,AF,1142263,32.5,62.5,47939,
AF.05,Bamyan,05,AF,1147239,34.75,67.25,484648,
AF.30,Balkh,30,AF,1147288,36.75,67,12451,
AF.03,Baghlan,03,AF,1147537,35.75,69,872234,
AF.02,Badghis,02,AF,1147707,35,63.75,792155,
AF.01,Badakhshan,01,AF,1147745,36.75,72,162937,
AF.37,Khowst,37,AF,1444362,33.38333,69.88333,283283,
AF.38,Nuristan,38,AF,1444363,35.3,70.83333,13,
AF.41,Daykundi,41,AF,6957553,33.75,66.25,44,
AF.42,Panjshir,42,AF,6957555,35.40248,69.98291,1461,
AG.08,Saint Philip,08,AG,3576015,17.05,-61.71667,3599,
AG.07,Saint Peter,07,AG,3576016,17.08925,-61.74819,4321,
AG.06,Saint Paul,06,AG,3576017,17.03333,-61.76667,7325,
AG.05,Saint Mary,05,AG,3576018,17.05,-61.85,636,
AG.04,Saint John,04,AG,3576023,17.1,-61.85,42721,
AG.03,Saint George,03,AG,3576024,17.1227,-61.79679,5393,
AG.09,Redonda,09,AG,3576037,16.93889,-62.34556,,
AG.01,Barbuda,01,AG,3576390,17.63333,-61.8,1638,
AI.11205389,Blowing Point,11205389,AI,11205389,18.177,-63.09161,942,
AI.11205392,Sandy Ground,11205392,AI,11205392,18.20399,-63.08993,274,
AI.11205393,Sandy Hill,11205393,AI,11205393,18.22066,-63.01178,118,
AI.11205396,The Valley,11205396,AI,11205396,18.21475,-63.05706,167,
AI.11205433,East End,11205433,AI,11205433,18.234,-62.99728,71,
AI.11205436,North Hill,11205436,AI,11205436,18.20603,-63.07607,526,
AI.11205437,West End,11205437,AI,11205437,18.17138,-63.15113,115,
AI.11205438,South Hill,11205438,AI,11205438,18.19177,-63.0898,1495,
AI.11205439,The Quarter,11205439,AI,11205439,18.21158,-63.04504,1737,
AI.11205440,North Side,11205440,AI,11205440,18.22931,-63.0468,2592,
AI.11205441,Island Harbour,11205441,AI,11205441,18.25617,-63.00724,1114,
AI.11205442,George Hill,11205442,AI,11205442,18.19943,-63.06517,1135,
AI.11205443,Stoney Ground,11205443,AI,11205443,18.22112,-63.04466,1545,
AI.11205444,The Farrington,11205444,AI,11205444,18.21533,-63.02123,12,
AL.40,Berat,40,AL,865730,40.63333,20.08333,141944,
AL.41,Diber,41,AL,865731,41.6,20.23333,13747,
AL.43,Elbasan,43,AL,865732,41.06667,20.2,295827,
AL.45,Gjirokaster,45,AL,865733,40.21667,20.2,72,
AL.46,Korce,46,AL,865734,40.61667,20.66667,22357,
AL.47,Kukes,47,AL,865735,42.2,20.36667,85292,
AL.42,Durres,42,AL,3344947,41.48333,19.61667,262785,
AL.44,Fier,44,AL,3344948,40.76667,19.61667,31331,
AL.48,Lezhe,48,AL,3344949,41.8,19.86667,13427,
AL.49,Shkoder,49,AL,3344950,42.18333,19.75,2,
AL.50,Tirana,50,AL,3344951,41.26667,19.78333,749365,
AL.51,Vlore,51,AL,3344952,40.16667,19.8,19,
AM.02,Ararat,02,AM,409313,39.91667,44.83333,26367,
AM.08,Syunik,08,AM,409314,39.33333,46.25,141771,
AM.10,Vayots Dzor,10,AM,409315,39.75,45.41667,52846,
AM.11,Yerevan,11,AM,616051,40.18333,44.5,16138,
AM.01,Aragatsotn,01,AM,828259,40.41667,44.16667,132925,
AM.03,Armavir,03,AM,828260,40.11667,44,26577,
AM.04,Gegharkunik,04,AM,828261,40.25,45.41667,23575,
AM.05,Kotayk,05,AM,828262,40.41667,44.75,254397,
AM.06,Lori,06,AM,828263,41,44.5,235537,
AM.07,Shirak,07,AM,828264,40.75,43.83333,251941,
AM.09,Tavush,09,AM,828265,40.91667,45.16667,12869,
AO.18,Lunda Sul,18,AO,145701,-10.25918,20.62489,51677,
AO.17,Luanda Norte,17,AO,145702,-8.63543,19.64852,79995,
AO.14,Moxico,14,AO,875996,-12.84869,20.93266,727594,
AO.04,Cuando Cobango,04,AO,876337,-15.94761,19.3832,13,
AO.16,Zaire,16,AO,2236355,-6.58717,13.51966,567225,
AO.15,Uige,15,AO,2236566,-7.10719,15.44056,1426354,
AO.12,Malanje,12,AO,2239858,-9.67548,16.82553,968135,
AO.20,Luanda,20,AO,2240444,-8.91667,13.33924,6542942,
AO.05,Cuanza Norte,05,AO,2241660,-8.91136,14.8887,42357,
AO.03,Cabinda,03,AO,2243266,-4.93423,12.40532,688285,
AO.19,Bengo,19,AO,2243598,-8.97504,13.82743,351579,
AO.13,Namibe,13,AO,3347016,-15.33207,12.66002,471613,
AO.09,Huila,09,AO,3348303,-14.69531,15.00014,2354398,
AO.08,Huambo,08,AO,3348310,-12.5,15.66667,1896147,
AO.07,Cunene,07,AO,3349096,-16.51009,15.43526,965288,
AO.06,Kwanza Sul,06,AO,3349234,-10.82696,15.03197,653121,
AO.02,Bie,02,AO,3351640,-12.34989,17.3031,1338923,
AO.01,Benguela,01,AO,3351660,-12.85399,13.92825,236662,
AR.14,Misiones,14,AR,3430657,-26.81427,-54.34387,965522,190
AR.09,Formosa,09,AR,3433896,-25,-60,486559,
AR.07,Buenos Aires F.D.,07,AR,3433955,-34.6,-58.45,2776138,
AR.08,Entre Rios,08,AR,3434137,-32,-59,1158147,
AR.06,Corrientes,06,AR,3435214,-29,-58,93991,
AR.01,Buenos Aires,01,AR,3435907,-36,-60,1562584,
AR.24,Tucuman,24,AR,3833578,-27,-65.5,1338523,
AR.23,Tierra del Fuego,23,AR,3834450,-54.5,-67,1179,
AR.22,Santiago del Estero,22,AR,3835868,-28,-63.5,84457,
AR.21,Santa Fe,21,AR,3836276,-31,-61,371,
AR.20,Santa Cruz,20,AR,3836350,-49,-70,196958,
AR.19,San Luis,19,AR,3837029,-34,-66,367933,
AR.18,San Juan,18,AR,3837152,-31,-69,6223,
AR.17,Salta,17,AR,3838231,-24.75806,-65.43457,17951,
AR.16,Rio Negro,16,AR,3838830,-40,-67,552822,
AR.15,Neuquen,15,AR,3843122,-39,-70,474155,
AR.13,Mendoza,13,AR,3844419,-34.5,-68.5,1579651,
AR.12,La Rioja,12,AR,3848949,-29.58333,-67,289983,
AR.11,La Pampa,11,AR,3849574,-37,-66,299294,
AR.10,Jujuy,10,AR,3853404,-23,-66,611888,
AR.05,Cordoba,05,AR,3860255,-32,-64,36681,
AR.04,Chubut,04,AR,3861244,-44,-69,413237,
AR.03,Chaco,03,AR,3861887,-26.33333,-60.5,984446,
AR.02,Catamarca,02,AR,3862286,-27,-67,334568,
AS.050,Western District,050,AS,5880873,-14.31667,-170.76667,32435,377
AS.040,Swains Island,040,AS,5881199,-11.056,-171.082,37,
AS.010,Eastern District,010,AS,5881219,-14.26667,-170.65,23441,22
AS.020,Manu'a,020,AS,5881436,-14.23327,-169.47458,14,73
AS.030,Rose Island,030,AS,7309441,-14.54583,-168.15,1,
AT.09,Vienna,09,AT,2761367,48.2082,16.37169,1569316,
AT.08,Vorarlberg,08,AT,2762300,47.25,9.91667,359737,
AT.07,Tyrol,07,AT,2763586,47.25,11.33333,692214,
AT.06,Styria,06,AT,2764581,47.25,15.16667,1185175,
AT.05,Salzburg,05,AT,2766823,47.41667,13.25,53383,
AT.04,Upper Austria,04,AT,2769848,48.25,14,14851,
AT.03,Lower Austria,03,AT,2770542,48.33333,15.75,1576622,
AT.02,Carinthia,02,AT,2774686,46.75,13.83333,565762,
AT.01,Burgenland,01,AT,2781194,47.5,16.41667,28122,
AU.08,Western Australia,08,AU,2058645,-25,122,2663,
AU.05,South Australia,05,AU,2061327,-30,135,17427,
AU.03,Northern Territory,03,AU,2064513,-20,134,2459,
AU.07,Victoria,07,AU,2145234,-37,145,65264,
AU.06,Tasmania,06,AU,2147291,-42,147,5315,
AU.04,Queensland,04,AU,2152274,-20,145,5528,
AU.02,New South Wales,02,AU,2155400,-33,146,8461,
AU.01,Australian Capital Territory,01,AU,2177478,-35.5,149,4238,
AX.211,Mariehamns stad,211,AX,9611689,60.08348,19.94307,1129,
AX.212,Alands landsbygd,212,AX,9611692,60.22496,19.93363,14626,
AX.213,Alands skaergard,213,AX,9611694,60.17575,20.71799,223,
AZ.12,Beylaqan,12,AZ,146879,39.75,47.66667,817,
AZ.69,Zangilan Rayon,69,AZ,146900,39.08333,46.66667,325,
AZ.66,Yardimli,66,AZ,146962,38.91667,48.25,54576,
AZ.55,Shusha,55,AZ,147163,39.67773,46.66398,338,
AZ.49,Salyan,49,AZ,147269,39.66667,49,11717,
AZ.46,Sabirabad,46,AZ,147284,39.91667,48.66667,143514,
AZ.45,Saatli,45,AZ,147287,39.83333,48.41667,8731,
AZ.13,Bilasuvar Rayon,13,AZ,147310,39.5,48.41667,944,
AZ.36,Neftcala,36,AZ,147422,39.33333,49,75356,
AZ.35,Nakhichevan,35,AZ,147435,39.20991,45.41817,64754,
AZ.32,Masally,32,AZ,147551,39,48.66667,183532,
AZ.31,Lerik,31,AZ,147610,38.75,48.41667,69735,
AZ.29,Lankaran,29,AZ,147613,38.70071,48.75551,1975,
AZ.28,Lacin,28,AZ,147626,39.65073,46.39913,6833,
AZ.43,Qubadli,43,AZ,147694,39.33333,46.58333,3567,
AZ.24,Imisli,24,AZ,147983,39.83333,48.08333,1961,
AZ.18,Fuezuli,18,AZ,148107,39.58333,47.33333,144442,
AZ.14,Jabrayil,14,AZ,148140,39.33333,47,799,
AZ.15,Jalilabad,15,AZ,148155,39.25,48.5,2,
AZ.08,Astara,08,AZ,148442,38.5,48.66667,978,
AZ.64,Xocali,64,AZ,148449,39.83333,46.75,283,
AZ.02,Aghjabadi Rayon,02,AZ,148615,40,47.41667,122649,
AZ.03,Agdam,03,AZ,148617,40,47,2,
AZ.07,Shirvan,07,AZ,409417,39.9604,48.88181,812,
AZ.30,Lankaran Sahari,30,AZ,409418,38.73333,48.83333,833,
AZ.56,Shusha City,56,AZ,409419,39.75,46.75,338,
AZ.57,Tartar Rayon,57,AZ,409420,40.33054,46.94289,136,
AZ.61,Xankandi Sahari,61,AZ,409421,39.81744,46.75318,558,
AZ.65,Khojavend,65,AZ,409423,39.66667,47,436,
AZ.71,Zardab,71,AZ,584583,40.25,47.75,518,
AZ.70,Zaqatala,70,AZ,584604,41.58333,46.66667,1278,
AZ.67,Yevlax,67,AZ,584650,40.66667,47,1267,
AZ.37,Oguz,37,AZ,584742,41.08333,47.5,44,
AZ.59,Ucar,59,AZ,584783,40.41667,47.75,7467,
AZ.58,Tovuz,58,AZ,584861,41,45.75,174,
AZ.50,Samaxi,50,AZ,585030,40.58333,48.66667,85795,
AZ.47,Shaki,47,AZ,585031,41.08333,47.16667,1854,
AZ.51,Shamkir Rayon,51,AZ,585059,40.83333,46.08333,215,
AZ.27,Kurdamir Rayon,27,AZ,585686,40.25,48.16667,16128,
AZ.38,Qabala Rayon,38,AZ,585738,40.91667,47.83333,155,
AZ.44,Qusar,44,AZ,585749,41.41667,48.25,84645,
AZ.42,Quba,42,AZ,585786,41.16667,48.41667,14347,
AZ.62,Goygol Rayon,62,AZ,585967,40.5,46.33333,634,
AZ.60,Xacmaz,60,AZ,586001,41.58333,48.75,15236,
AZ.26,Kalbajar,26,AZ,586047,40.1027,46.1747,53962,
AZ.40,Qazax,40,AZ,586087,41.26,45.09,967,
AZ.21,Goranboy,21,AZ,586112,40.58333,46.66667,133,
AZ.39,Qax,39,AZ,586290,41.33333,46.75,565,
AZ.25,Ismayilli,25,AZ,586320,40.83333,48.16667,76184,
AZ.22,Goeycay,22,AZ,586482,40.58333,47.83333,15323,
AZ.17,Shabran,17,AZ,586725,41.18542,48.8275,53,
AZ.16,Dashkasan Rayon,16,AZ,586771,40.41667,46,35,
AZ.10,Balakan Rayon,10,AZ,587010,41.75,46.41667,976,
AZ.11,Barda,11,AZ,587056,40.33333,47.16667,1296,
AZ.09,Baki,09,AZ,587081,40.39802,49.72414,21223,
AZ.01,Abseron,01,AZ,587245,40.41667,49.33333,21,
AZ.06,Agsu,06,AZ,587342,40.5,48.33333,66645,
AZ.04,Agdas,04,AZ,587376,40.58333,47.41667,986,
AZ.19,Gadabay Rayon,19,AZ,627535,40.5,45.66667,998,
AZ.05,Agstafa,05,AZ,828297,41.25,45.5,872,
AZ.20,Ganja City,20,AZ,828298,40.6937,46.34082,3326,
AZ.33,Mingacevir City,33,AZ,828299,40.76667,47,99775,
AZ.34,Naftalan,34,AZ,828300,40.50525,46.81163,11,
AZ.41,Qobustan,41,AZ,828301,40.5,49,37224,
AZ.52,Samux,52,AZ,828302,40.91667,46.41667,577,
AZ.48,Shaki City,48,AZ,828303,41.18333,47.16667,1854,
AZ.53,Siazan Rayon,53,AZ,828304,41,49.08333,384,
AZ.54,Sumqayit,54,AZ,828305,40.59466,49.62799,3412,
AZ.63,Xizi,63,AZ,828306,40.75,49.16667,168,
AZ.68,Yevlax City,68,AZ,828307,40.58333,47.16667,5936,
AZ.23,Haciqabul,23,AZ,828315,40.08333,48.91667,6115,
BA.01,Federation of B&H,01,BA,3229999,44,17.58333,237163,
BA.02,Srpska,02,BA,3230000,44.73333,17.4,1326991,
BA.BRC,Brcko,BRC,BA,3294903,44.83333,18.83333,87332,
BB.11,Saint Thomas,11,BB,3373551,13.17932,-59.58787,1185,
BB.10,Saint Philip,10,BB,3373553,13.1339,-59.46402,2944,
BB.09,Saint Peter,09,BB,3373554,13.26096,-59.61585,11544,
BB.08,Saint Michael,08,BB,3373557,13.12633,-59.59817,9969,
BB.07,Saint Lucy,07,BB,3373565,13.30728,-59.61937,976,
BB.06,Saint Joseph,06,BB,3373568,13.2056,-59.54418,7764,
BB.05,Saint John,05,BB,3373569,13.17581,-59.50303,1421,
BB.04,Saint James,04,BB,3373570,13.21183,-59.61956,21454,
BB.03,Saint George,03,BB,3373572,13.13933,-59.54345,1953,
BB.02,Saint Andrew,02,BB,3373580,13.23986,-59.5783,6436,
BB.01,Christ Church,01,BB,3373988,13.08734,-59.52418,48119,
BD.83,Rajshahi Division,83,BD,1337166,25,89,18484858,
BD.81,Dhaka,81,BD,1337179,23.83333,90.25,47424418,
BD.84,Chittagong,84,BD,1337200,22.91667,91.5,2842319,
BD.82,Khulna,82,BD,1337210,22.91667,89.33333,15687759,
BD.85,Barisal,85,BD,1337229,22.5,90.33333,8325666,
BD.86,Sylhet,86,BD,1477362,24.66667,91.66667,991219,
BD.87,Rangpur Division,87,BD,7671048,25.83333,89,15787758,
BD.H,Mymensingh Division,H,BD,11287936,24.72937,90.38109,1137,
BE.BRU,Brussels Capital,BRU,BE,2800867,50.85332,4.35144,183,
BE.WAL,Wallonia,WAL,BE,3337387,50.5,4.75,3585214,
BE.VLG,Flanders,VLG,BE,3337388,51,4.5,635765,
BF.01,Boucle du Mouhoun,01,BF,6930701,12.47203,-3.47305,1434847,
BF.02,Cascades,02,BF,6930703,10.38,-4.5,524956,
BF.03,Centre,03,BF,6930704,12.37874,-1.53276,2136581,
BF.04,Centre-Est,04,BF,6930705,11.78922,-0.35706,113223,
BF.05,Centre-Nord,05,BF,6930706,13.09829,-1.0855,12373,
BF.06,Centre-Ouest,06,BF,6930707,12.25488,-2.36876,1348784,
BF.07,Centre-Sud,07,BF,6930708,11.67132,-1.07374,722631,
BF.08,Est,08,BF,6930709,12.06308,0.36349,129399,
BF.09,Hauts-Bassins,09,BF,6930710,11.28,-4.32,141284,
BF.10,Nord,10,BF,6930711,13.58809,-2.4212,118277,
BF.11,Plateau-Central,11,BF,6930712,12.58774,-1.30102,696372,
BF.12,Sahel,12,BF,6930713,14.03351,-0.04575,968442,
BF.13,Sud-Ouest,13,BF,6930714,10.5,-3.2,62456,
BG.52,Razgrad,52,BG,453751,43.65,26.6,112229,
BG.47,Montana,47,BG,453753,43.5,23.18333,129637,
BG.64,Vratsa,64,BG,725713,43.4,23.76667,162549,
BG.61,Varna,61,BG,726051,43.21667,27.6,471252,
BG.40,Dobrich,40,BG,726419,43.68333,27.9,173831,
BG.58,Sofia,58,BG,727012,42.66667,23.8,22941,
BG.53,Ruse,53,BG,727524,43.7,26,218556,
BG.51,Plovdiv,51,BG,728194,42.26667,24.83333,668334,
BG.50,Pleven,50,BG,728204,43.5,24.63333,2438,
BG.49,Pernik,49,BG,728331,42.63333,22.88333,1288,
BG.48,Pazardzhik,48,BG,728379,42.08333,24.16667,255479,
BG.46,Lovech,46,BG,729560,43.03333,24.56667,124873,
BG.43,Haskovo,43,BG,730436,41.83333,25.91667,228141,
BG.42,Sofia-Capital,42,BG,731061,42.66667,23.38333,132812,
BG.39,Burgas,39,BG,732771,42.53333,27.23333,41331,
BG.38,Blagoevgrad,38,BG,733192,41.73333,23.45,35123,
BG.41,Gabrovo,41,BG,864552,42.95,25.25,1844,
BG.44,Kardzhali,44,BG,864553,41.53333,25.43333,152873,
BG.45,Kyustendil,45,BG,864554,42.25,22.9,11941,
BG.54,Shumen,54,BG,864555,43.33333,27,172355,
BG.55,Silistra,55,BG,864556,43.93333,27.05,19271,
BG.56,Sliven,56,BG,864557,42.66667,26.28333,186495,
BG.57,Smolyan,57,BG,864558,41.61667,24.65,15421,
BG.59,Stara Zagora,59,BG,864559,42.45,25.56667,316356,
BG.60,Targovishte,60,BG,864560,43.26667,26.38333,111597,
BG.62,Veliko Tarnovo,62,BG,864561,43.23333,25.65,23578,
BG.63,Vidin,63,BG,864562,43.81667,22.71667,84865,
BG.65,Yambol,65,BG,864563,42.33333,26.63333,118897,
BH.15,Muharraq,15,BH,290333,26.25,50.61667,189114,
BH.16,Manama,16,BH,7090954,26.21667,50.58333,32951,
BH.17,Southern Governorate,17,BH,7090972,25.86667,50.58333,9145,
BH.19,Northern,19,BH,7090974,26.15,50.46667,276949,
BI.17,Makamba,17,BI,422233,-4.16667,29.75278,499682,
BI.10,Bururi,10,BI,423327,-3.85,29.63333,49349,
BI.22,Muramvya,22,BI,425550,-3.25,29.66667,33482,
BI.13,Gitega,13,BI,426271,-3.5,29.95,67516,
BI.21,Ruyigi,21,BI,426699,-3.45,30.31667,369797,
BI.11,Cankuzo,11,BI,427700,-3.13333,30.58333,22283,
BI.14,Karuzi,14,BI,428218,-3.125,30.13333,479683,
BI.09,Bubanza,09,BI,428514,-3.11667,29.4,354427,
BI.12,Cibitoke,12,BI,430020,-2.88333,29.25,49949,
BI.19,Ngozi,19,BI,430567,-2.875,29.925,719158,
BI.15,Kayanza,15,BI,430951,-3.06667,29.66667,486917,
BI.18,Muyinga,18,BI,431747,-2.83333,30.33333,595947,
BI.16,Kirundo,16,BI,432455,-2.58333,30.16667,6289,
BI.20,Rutana,20,BI,434147,-3.86667,30.1,293572,
BI.23,Mwaro,23,BI,434386,-3.5,29.66667,27489,
BI.24,Bujumbura Mairie,24,BI,7303939,-3.3802,29.3547,8,
BI.25,Bujumbura Rural,25,BI,7303940,-3.4627,29.46259,555933,
BI.26,Rumonge,26,BI,11184798,-3.96478,29.44765,35,
BJ.18,Zou,18,BJ,2390719,7.25,2.16667,628684,
BJ.16,Oueme,16,BJ,2392325,6.61667,2.51667,773421,
BJ.15,Mono,15,BJ,2392716,6.58333,1.83333,3878,
BJ.10,Borgou,10,BJ,2394992,9.75,2.75,8253,
BJ.09,Atlantique,09,BJ,2395504,6.66667,2.25,89691,
BJ.08,Atakora,08,BJ,2395524,10.75,1.66667,586734,
BJ.07,Alibori,07,BJ,2597271,11.33333,2.91667,576251,
BJ.11,Collines,11,BJ,2597272,8,2.16667,6266,
BJ.12,Kouffo,12,BJ,2597273,7.08333,1.83333,56182,
BJ.13,Donga,13,BJ,2597274,9.33333,1.78333,384151,
BJ.14,Littoral,14,BJ,2597275,6.36667,2.41667,69584,
BJ.17,Plateau,17,BJ,2597277,7.16667,2.58333,435623,
BM.11,Warwick,11,BM,3572972,32.26583,-64.80722,8932,
BM.10,Southampton,10,BM,3573026,32.25083,-64.85639,626,
BM.09,Smith's Parish,09,BM,3573031,32.31528,-64.73528,5852,
BM.08,Sandys,08,BM,3573050,32.29345,-64.86828,7723,
BM.07,Saint George's Parish,07,BM,3573057,32.3726,-64.69437,5659,
BM.06,Saint George,06,BM,3573062,32.38417,-64.67639,1743,
BM.05,Pembroke,05,BM,3573095,32.29944,-64.79278,1249,
BM.04,Paget,04,BM,3573103,32.27833,-64.78167,5179,
BM.02,Hamilton,02,BM,3573195,32.34222,-64.72833,5584,
BM.03,Hamilton city,03,BM,3573198,32.29326,-64.78063,11,
BM.01,Devonshire,01,BM,3573251,32.30278,-64.75583,787,
BN.04,Tutong,04,BN,1820068,4.63333,114.71667,41426,
BN.03,Temburong,03,BN,1820106,4.58333,115.16667,198,
BN.02,Brunei-Muara District,02,BN,1820818,4.91667,114.91667,279924,
BN.01,Belait,01,BN,1820869,4.31667,114.58333,77515,
BO.09,Tarija,09,BO,3903319,-21.5,-64,478577,
BO.08,Santa Cruz,08,BO,3904907,-17.5,-61.5,2657762,
BO.07,Potosi,07,BO,3907580,-20.66667,-67,754689,
BO.06,Pando,06,BO,3908600,-11.33333,-67.66667,1392,
BO.05,Oruro,05,BO,3909233,-18.66667,-67.5,488584,
BO.04,La Paz,04,BO,3911924,-15.5,-68,263388,
BO.02,Cochabamba,02,BO,3919966,-17.5,-65.66667,1639857,
BO.01,Chuquisaca,01,BO,3920177,-20,-64.33333,528796,
BO.03,El Beni,03,BO,3923172,-14,-65.5,4228,
BQ.BO,Bonaire,BO,BQ,7609816,12.2,-68.25,13389,
BQ.SB,Saba,SB,BQ,7610358,17.63333,-63.23333,1737,
BQ.SE,Sint Eustatius,SE,BQ,7610359,17.5,-62.96667,2886,
BR.22,Rio Grande do Norte,22,BR,3390290,-5.75,-36.5,3168133,
BR.20,Piaui,20,BR,3392213,-7.25,-42.33333,311915,
BR.30,Pernambuco,30,BR,3392268,-8.33333,-37.75,879632,
BR.17,Paraiba,17,BR,3393098,-7.25,-36.5,3766834,
BR.16,Para,16,BR,3393129,-4,-53,758878,
BR.13,Maranhao,13,BR,3395443,-5,-45,6569683,
BR.06,Ceara,06,BR,3402362,-5,-39.5,844855,
BR.03,Amapa,03,BR,3407762,1,-52,668689,
BR.02,Alagoas,02,BR,3408096,-9.58333,-36.41667,312922,
BR.28,Sergipe,28,BR,3447799,-10.5,-37.33333,26831,
BR.27,Sao Paulo,27,BR,3448433,-22,-49,4125216,
BR.26,Santa Catarina,26,BR,3450387,-27,-50,6249682,
BR.23,Rio Grande do Sul,23,BR,3451133,-30,-53.5,1695532,
BR.21,Rio de Janeiro,21,BR,3451189,-22.25,-42.5,15993583,
BR.18,Parana,18,BR,3455077,-24.5,-51.33333,143961,
BR.15,Minas Gerais,15,BR,3457153,-18,-44,1959539,
BR.11,Mato Grosso do Sul,11,BR,3457415,-20.5,-55,25588,
BR.14,Mato Grosso,14,BR,3457419,-13,-56,333991,
BR.29,Goias,29,BR,3462372,-15.58071,-49.63623,6445,
BR.07,Federal District,07,BR,3463504,-15.75,-47.75,2648532,
BR.08,Espirito Santo,08,BR,3463930,-20,-40.75,3512672,
BR.05,Bahia,05,BR,3471168,-12,-42,14175341,
BR.31,Tocantins,31,BR,3474575,-10.5,-48,1383453,
BR.25,Roraima,25,BR,3662560,2.25,-61.25,451227,
BR.04,Amazonas,04,BR,3665361,-3.75,-64.5,348937,
BR.01,Acre,01,BR,3665474,-9,-70,732793,
BR.24,Rondonia,24,BR,3924825,-11,-63,15651,
BS.35,San Salvador,35,BS,3571493,24.03667,-74.49306,1293,
BS.18,Ragged Island,18,BS,3571629,22.37083,-75.815,7,
BS.32,Berry Islands,32,BS,3571809,25.72111,-77.83139,742,
BS.23,New Providence,23,BS,3571815,25.03333,-77.28333,228334,
BS.16,Mayaguana,16,BS,3571894,22.38417,-72.95389,251,
BS.15,Long Island,15,BS,3572005,23.21667,-75.11167,2979,
BS.13,Inagua,13,BS,3572154,21.07694,-73.31167,913,
BS.22,Harbour Island,22,BS,3572238,25.48946,-76.63513,1751,
BS.25,Freeport,25,BS,3572374,26.52028,-78.64528,26914,
BS.10,Exuma,10,BS,3572427,23.56944,-75.88417,6928,
BS.06,Cat Island,06,BS,3572678,24.335,-75.4575,166,
BS.05,Bimini,05,BS,3572807,25.70444,-79.28889,1735,
BS.24,Acklins,24,BS,3572937,22.43167,-73.96417,435,
BS.36,Black Point,36,BS,8030541,24.09,-76.39556,414,
BS.37,Central Abaco,37,BS,8030542,26.43917,-77.12972,,
BS.38,Central Andros,38,BS,8030543,24.43889,-77.95194,662,
BS.39,Central Eleuthera,39,BS,8030544,25.135,-76.14556,,
BS.40,Crooked Island and Long Cay,40,BS,8030545,22.73361,-74.21528,33,
BS.41,East Grand Bahama,41,BS,8030546,26.67167,-78.14139,,
BS.42,Grand Cay,42,BS,8030547,27.22917,-78.33056,383,
BS.43,Hope Town,43,BS,8030548,26.52445,-76.97009,5,
BS.44,Mangrove Cay,44,BS,8030549,24.16,-77.78028,892,
BS.45,Moore's Island,45,BS,8030550,26.30083,-77.55417,95,
BS.46,North Abaco,46,BS,8030551,26.78944,-77.43694,9578,
BS.47,North Andros,47,BS,8030552,24.76694,-78.09611,3898,
BS.48,North Eleuthera,48,BS,8030553,25.46278,-76.67556,3247,
BS.49,Rum Cay,49,BS,8030554,23.67806,-74.85667,53,
BS.50,South Abaco,50,BS,8030555,26.04694,-77.24361,7646,
BS.51,South Andros,51,BS,8030556,23.92361,-77.64889,3592,
BS.52,South Eleuthera,52,BS,8030557,24.80083,-76.18306,4955,
BS.53,Spanish Wells,53,BS,8030558,25.54538,-76.77057,15,
BS.54,West Grand Bahama,54,BS,8030559,26.59333,-78.60056,,
BT.05,Bumthang,05,BT,1337278,27.7,90.78333,21658,
BT.06,Chukha,06,BT,1337279,27,89.55,61173,
BT.08,Dagana,08,BT,1337280,27.1,89.86667,26837,
BT.07,Chirang,07,BT,1337281,27.03333,90.16667,2927,
BT.09,Geylegphug,09,BT,1337282,27.03333,90.41667,464,
BT.10,Haa,10,BT,1337283,27.33333,89.18333,132,
BT.11,Lhuntse,11,BT,1337284,27.75,91.18333,14437,
BT.12,Mongar,12,BT,1337285,27.25,91.23333,5249,
BT.13,Paro,13,BT,1337286,27.51667,89.4,32129,
BT.14,Pemagatshel,14,BT,1337287,27,91.36667,23632,
BT.15,Punakha,15,BT,1337288,27.7,89.85,22951,
BT.16,Samchi,16,BT,1337289,27.03333,89.08333,6485,
BT.17,Samdrup Jongkhar,17,BT,1337290,26.91667,91.61667,52459,
BT.18,Shemgang,18,BT,1337291,27.08333,90.85,2748,
BT.19,Tashigang,19,BT,1337292,27.25,91.75,45518,
BT.20,Thimphu,20,BT,1337293,27.6,89.58333,8984,
BT.21,Tongsa,21,BT,1337294,27.35,90.53333,19135,
BT.22,Wangdi Phodrang,22,BT,1337295,27.5,90.13333,34746,
BT.23,Gasa,23,BT,7303651,27.91313,89.70886,35,
BT.24,Trashi Yangste,24,BT,7303653,27.58468,91.45466,173,
BW.10,Ngwaketsi,10,BW,933043,-25,25,179888,
BW.09,South-East,09,BW,933044,-25,25.75,276319,
BW.08,North-East,08,BW,933210,-21,27.5,89979,
BW.11,North-West,11,BW,933230,-20,22.5,81978,
BW.06,Kweneng,06,BW,933562,-24,25,23335,
BW.05,Kgatleng,05,BW,933654,-24.25,26.5,79665,
BW.04,Kgalagadi,04,BW,933657,-25,22,4249,
BW.03,Ghanzi,03,BW,933758,-22,22,36675,
BW.12,Chobe,12,BW,933840,-18.5,25,1998,
BW.01,Central,01,BW,933851,-22,26,188174,
BW.13,City of Francistown,13,BW,11778168,-21.17,27.50778,158,
BW.14,Gaborone,14,BW,11778169,-24.64639,25.91194,231626,
BW.15,Jwaneng,15,BW,11778170,-24.60167,24.72806,1863,
BW.16,Lobatse,16,BW,11778171,-25.21417,25.68083,3,
BW.17,Selibe Phikwe,17,BW,11778172,-21.97583,27.83472,49724,
BW.18,Sowa Town,18,BW,11778173,-20.56361,26.22444,2879,
BY.07,Vitebsk,07,BY,620134,55,29.5,123,
BY.06,Mogilev,06,BY,625073,54,30.75,188,
BY.05,Minsk,05,BY,625142,54,28,1411,
BY.04,Minsk City,04,BY,625143,53.9,27.56667,226,
BY.03,Grodnenskaya,03,BY,628035,53.5,24.5,11,
BY.02,Gomel Oblast,02,BY,628281,52,30,1426674,
BY.01,Brest,01,BY,629631,52.09976,23.7854,14,
BZ.06,Toledo,06,BZ,3580913,16.33333,-88.86667,27598,
BZ.05,Southern District,05,BZ,3580975,16.83333,-88.46667,29882,
BZ.04,Orange Walk,04,BZ,3581511,17.76667,-88.8,45419,
BZ.03,Corozal,03,BZ,3582302,18.21667,-88.31667,35417,
BZ.02,Cayo,02,BZ,3582429,17,-88.9,66565,
BZ.01,Belize,01,BZ,3582676,17.55,-88.41667,89247,
CA.01,Alberta,01,CA,5883102,52.28333,-117.469,3497881,
CA.02,British Columbia,02,CA,5909050,53.99983,-125.0032,4413973,
CA.03,Manitoba,03,CA,6065171,55.00019,-97.00049,1193566,
CA.04,New Brunswick,04,CA,6087430,46.5001,-65.99878,75125,
CA.13,Northwest Territories,13,CA,6091069,69.50061,-121.50445,31247,
CA.07,Nova Scotia,07,CA,6091530,45.00015,-62.99865,935573,
CA.14,Nunavut,14,CA,6091732,66.03478,-100.07813,3776,
CA.08,Ontario,08,CA,6093943,49.25014,-84.49983,1286194,
CA.09,Prince Edward Island,09,CA,6113358,46.39808,-63.29844,13989,
CA.10,Quebec,10,CA,6115047,52.00017,-71.99907,8585523,
CA.11,Saskatchewan,11,CA,6141242,54.0001,-106.00099,16644,
CA.12,Yukon,12,CA,6185811,62.99962,-135.00404,3353,
CA.05,Newfoundland and Labrador,05,CA,6354959,52,-56,5899,
CD.31,Tshuapa,31,CD,204697,-0.21667,20.86667,1316855,
CD.30,Tshopo,30,CD,204704,0.46667,25.21667,261463,
CD.29,Tanganyika,29,CD,205253,-5.93333,29.2,335852,
CD.12,South Kivu,12,CD,205413,-3.16667,28.25,399135,
CD.27,Sankuru,27,CD,205828,-4.96667,23.45,1374239,
CD.11,Nord Kivu,11,CD,206938,-0.66667,28.75,498824,
CD.25,Mongala,25,CD,208741,2.06667,21.51667,1793564,
CD.10,Maniema,10,CD,209610,-3,26,1718257,
CD.23,Kasai-Central,23,CD,210596,-6.292,22.483,3,
CD.04,Kasai-Oriental,04,CD,214138,-6.18333,23.51667,65,
CD.18,Kasai,18,CD,214140,-5.35,21.41667,32,
CD.17,Ituri,17,CD,215709,1.56667,30.25,4241236,
CD.16,Haut-Uele,16,CD,216140,2.76667,27.61667,192867,
CD.15,Haut-Lomami,15,CD,216141,-8.73333,25,254127,
CD.02,Equateur,02,CD,216661,0.2,18.93333,75,
CD.13,Bas-Uele,13,CD,219402,2.8,24.73333,193845,
CD.22,Lualaba,22,CD,922727,-10.71667,25.46667,1677288,
CD.24,Mai-Ndombe,24,CD,2313191,-2.591,19.335,1768327,
CD.20,Kwilu,20,CD,2313847,-5.03333,18.81667,5174718,
CD.19,Kwango,19,CD,2313860,-6.542,17.832,199436,
CD.06,Kinshasa,06,CD,2314300,-4.375,15.97,164857,
CD.08,Bas-Congo,08,CD,2317277,-5.33333,14.33333,382736,
CD.14,Haut-Katanga,14,CD,11288213,-10.46667,27.81667,396945,
CD.21,Lomami,21,CD,11288214,-6.21667,24.66667,248839,
CD.26,Nord-Ubangi,26,CD,11288215,3.65,21.26667,148276,
CD.28,Sud-Ubangi,28,CD,11288216,3.08333,19.35,2744345,
CF.14,Vakaga,14,CF,236178,9.83333,22.5,3896,
CF.11,Ouaka,11,CF,236887,6.25,20.75,226816,
CF.08,Mbomou,08,CF,237556,5.5,23.33333,1649,
CF.05,Haut-Mbomou,05,CF,238639,6.33333,25.66667,39543,
CF.03,Haute-Kotto,03,CF,238640,7.41667,23,72244,
CF.02,Basse-Kotto,02,CF,240396,5,21.36667,2585,
CF.01,Bamingui-Bangoran,01,CF,240591,8.41667,20.66667,39779,
CF.16,Sangha-Mbaere,16,CF,2383204,3.5,16.16667,93537,
CF.13,Ouham-Pende,13,CF,2383650,6.75,16.08333,333161,
CF.12,Ouham,12,CF,2383653,7,18,36922,
CF.17,Ombella-M'Poko,17,CF,2383765,5.08333,18,323347,
CF.09,Nana-Mambere,09,CF,2384205,5.97122,15.26276,18513,
CF.07,Lobaye,07,CF,2385105,4.16667,17.66667,22983,
CF.06,Kemo,06,CF,2385836,5.86667,19.2,11627,
CF.04,Mambere-Kadei,04,CF,2386161,4.5,16,299555,
CF.15,Nana-Grebizi,15,CF,2386243,7.08333,19.33333,117816,
CF.18,Bangui,18,CF,2596686,4.38333,18.56667,542393,
CG.10,Sangha,10,CG,2255329,1.33333,15.5,85738,
CG.11,Pool,11,CG,2255404,-3.53333,14.83333,24999,
CG.08,Plateaux,08,CG,2255422,-2,15.5,174591,
CG.07,Niari,07,CG,2256175,-3.01436,12.34863,231271,
CG.06,Likouala,06,CG,2258431,2,17.5,9,
CG.05,Lekoumou,05,CG,2258534,-3.1,13.53333,78344,
CG.04,Kouilou,04,CG,2258738,-4.19577,11.99982,99356,
CG.13,Cuvette,13,CG,2260487,-0.5,16,15644,
CG.01,Bouenza,01,CG,2260668,-4.1629,13.71094,3973,
CG.12,Brazzaville,12,CG,2572183,-4.2657,15.28048,137911,
CG.14,Cuvette-Ouest,14,CG,2593118,0,14.5,5392,
CG.15,Pointe-Noire,15,CG,7280295,-4.79029,11.87622,715334,
CH.ZH,Zurich,ZH,CH,2657895,47.41667,8.66667,1289559,
CH.ZG,Zug,ZG,CH,2657907,47.15886,8.53866,16352,
CH.VD,Vaud,VD,CH,2658182,46.61671,6.64496,646233,
CH.VS,Valais,VS,CH,2658205,46.22925,7.45972,284653,
CH.UR,Uri,UR,CH,2658226,46.7847,8.64175,3488,
CH.TI,Ticino,TI,CH,2658370,46.28455,8.79065,3176,
CH.TG,Thurgau,TG,CH,2658372,47.5562,9.07686,236,
CH.SO,Solothurn,SO,CH,2658563,47.21071,7.52048,25155,
CH.SZ,Schwyz,SZ,CH,2658664,47.0405,8.74101,135461,
CH.SH,Schaffhausen,SH,CH,2658760,47.71034,8.63388,73443,
CH.SG,Saint Gallen,SG,CH,2658821,47.25,9.25,462877,
CH.OW,Obwalden,OW,CH,2659315,46.85867,8.20984,33717,
CH.NW,Nidwalden,NW,CH,2659471,46.92739,8.41028,4794,
CH.NE,Neuchatel,NE,CH,2659495,46.99087,6.79767,16881,
CH.LU,Lucerne,LU,CH,2659810,47.16667,8.16667,362215,
CH.JU,Jura,JU,CH,2660207,47.37266,7.16802,69935,
CH.GR,Grisons,GR,CH,2660522,46.6587,9.62296,18181,
CH.GL,Glarus,GL,CH,2660593,46.97559,9.07318,37372,
CH.GE,Geneva,GE,CH,2660645,46.19673,6.11044,433978,
CH.FR,Fribourg,FR,CH,2660717,46.70834,7.10311,248953,
CH.BE,Bern,BE,CH,2661551,46.87251,7.59563,955658,
CH.BS,Basel-City,BS,CH,2661602,47.5669,7.61519,195962,
CH.BL,Basel-Landschaft,BL,CH,2661603,47.50438,7.70444,265585,
CH.AR,Appenzell Ausserrhoden,AR,CH,2661739,47.36293,9.28283,51829,
CH.AI,Appenzell Innerrhoden,AI,CH,2661741,47.31262,9.40562,15717,
CH.AG,Aargau,AG,CH,2661876,47.39557,8.17214,574171,
CI.98,Yamoussoukro,98,CI,10629377,6.81667,-5.28333,355573,
CI.76,Bas-Sassandra,76,CI,11153052,5.49929,-6.66085,228548,
CI.94,Comoe,94,CI,11153053,5.50386,-3.25105,12352,
CI.77,Denguele,77,CI,11153054,9.49712,-7.37629,289779,
CI.95,Goh-Djiboua,95,CI,11153055,6.13184,-5.94893,165286,
CI.81,Lacs,81,CI,11153056,7.03125,-4.44848,125864,
CI.82,Lagunes,82,CI,11153057,5.87068,-4.29862,147847,
CI.78,Montagnes,78,CI,11153058,6.95434,-7.62897,237192,
CI.96,Sassandra-Marahoue,96,CI,11153059,6.96585,-6.50734,229334,
CI.87,Savanes,87,CI,11153060,9.48829,-5.49419,167497,
CI.90,Vallee du Bandama,90,CI,11153061,8.25011,-4.85458,144826,
CI.97,Woroba,97,CI,11153062,7.99044,-6.62544,845139,
CI.92,Zanzan,92,CI,11153063,8.50016,-3.21384,934352,
CI.93,Abidjan,93,CI,11153151,5.36289,-3.9992,47744,
CK.11695124,Aitutaki,11695124,CK,11695124,-18.85593,-159.78567,2,
CK.11695126,Atiu,11695126,CK,11695126,-19.99569,-158.10948,297,
CK.11695127,Mangaia,11695127,CK,11695127,-21.92601,-157.91851,744,
CK.11695384,Manihiki,11695384,CK,11695384,-10.42603,-160.97992,5,
CK.11695385,Ma'uke,11695385,CK,11695385,-20.16732,-157.33675,297,
CK.11695386,Mitiaro,11695386,CK,11695386,-19.86861,-157.709,219,
CK.11695387,Palmerston,11695387,CK,11695387,-18.05856,-163.18233,57,
CK.11695388,Penrhyn,11695388,CK,11695388,-8.99479,-157.96555,357,
CK.11695389,Pukapuka,11695389,CK,11695389,-10.85371,-165.84738,57,
CK.11695390,Rakahanga,11695390,CK,11695390,-10.03174,-161.09098,127,
CK.11695425,Rarotonga,11695425,CK,11695425,-21.23274,-159.77245,1344,
CL.01,Valparaiso,01,CL,3868621,-32.75,-71.33333,179219,
CL.15,Tarapaca,15,CL,3870116,-20,-69.33333,23895,
CL.12,Santiago Metropolitan,12,CL,3873544,-33.47269,-70.64724,6685685,
CL.11,Maule Region,11,CL,3880306,-35.5,-71.5,95548,
CL.14,Los Lagos Region,14,CL,3881974,-42.59889,-73.96048,767714,
CL.08,O'Higgins Region,08,CL,3883281,-34.5,-71,85146,
CL.07,Coquimbo Region,07,CL,3893623,-30.75,-71,68786,
CL.06,Biobio,06,CL,3898380,-37.375,-72.45,21494,
CL.05,Atacama,05,CL,3899191,-27.5,-70,284992,
CL.04,Araucania,04,CL,3899463,-38.5,-72,889942,
CL.03,Antofagasta,03,CL,3899537,-23.5,-69,53879,
CL.02,Aysen,02,CL,3900333,-46.5,-73.5,94271,
CL.10,Region of Magallanes,10,CL,4036650,-52.50026,-73.00067,155332,
CL.16,Arica y Parinacota,16,CL,6693562,-18.57336,-69.46106,213595,
CL.17,Los Rios Region,17,CL,6693563,-40.01499,-72.51526,364183,
CL.18,Nuble,18,CL,11979367,-36.62291,-72.21643,4869,
CM.09,South-West,09,CM,2221788,5.2,9.3,131679,
CM.14,South,14,CM,2221789,2.75,11.58333,634655,
CM.08,West,08,CM,2222934,5.5,10.66667,1339791,
CM.07,North-West,07,CM,2223602,6.36667,10.36667,1728953,
CM.13,North,13,CM,2223603,8.5,14,2442578,
CM.05,Littoral,05,CM,2229336,4.26667,10.13333,22234,
CM.12,Far North,12,CM,2231755,11,14.5,1855695,
CM.04,East,04,CM,2231835,3.83333,14.16667,83696,
CM.11,Centre,11,CM,2233376,4.75,11.83333,2672533,
CM.10,Adamaoua,10,CM,2236015,6.83333,13.25,495185,
CN.14,Tibet,14,CN,1279685,31.66667,88,287,
CN.06,Qinghai,06,CN,1280239,36,96,5626722,
CN.13,Xinjiang,13,CN,1529047,41.5,85.5,2131,
CN.02,Zhejiang,02,CN,1784764,29.16667,120,512,
CN.29,Yunnan,29,CN,1785694,25,101.5,4543,
CN.28,Tianjin,28,CN,1792943,39.33333,117.33333,14,
CN.32,Sichuan,32,CN,1794299,30.5,102.66667,8725,
CN.24,Shanxi,24,CN,1795912,37.66667,112.25,3411,
CN.23,Shanghai,23,CN,1796231,31.16667,121.41667,1888,
CN.25,Shandong,25,CN,1796328,36.33333,118.25,9417,
CN.26,Shaanxi,26,CN,1796480,36,109,3762,
CN.21,Ningxia Hui Autonomous Region,21,CN,1799355,37.25,106,618,
CN.03,Jiangxi,03,CN,1806222,27.66667,115.66667,44,
CN.04,Jiangsu,04,CN,1806260,33,119.83333,7677,
CN.11,Hunan,11,CN,1806691,27.66667,111.75,6698,
CN.12,Hubei,12,CN,1806949,31,112.25,5711,
CN.09,Henan,09,CN,1808520,34,113.66667,9429,
CN.10,Hebei,10,CN,1808773,39,115.66667,6989,
CN.31,Hainan,31,CN,1809054,19.25,109.75,854,
CN.18,Guizhou,18,CN,1809445,27,107,3793,
CN.16,Guangxi,16,CN,1809867,24,109,4816,
CN.30,Guangdong,30,CN,1809935,23.5,113.25,1433132,
CN.15,Gansu,15,CN,1810676,37.75,102.75,2628,
CN.07,Fujian,07,CN,1811017,26.25,118,3689,
CN.33,Chongqing,33,CN,1814905,30.08333,107.83333,2839,
CN.01,Anhui,01,CN,1818058,31.91667,117.16667,6461,
CN.20,Inner Mongolia,20,CN,2035607,43.5,114.75,24259735,
CN.19,Liaoning,19,CN,2036115,41.25,122.66667,4315,
CN.05,Jilin,05,CN,2036500,43.58333,126.16667,2734,
CN.08,Heilongjiang,08,CN,2036965,47.75,128,3825,
CN.22,Beijing,22,CN,2038349,39.91691,116.39706,14933274,
CO.31,Vichada,31,CO,3666082,5,-69.5,55872,
CO.30,Vaupes,30,CO,3666254,0.75,-70.75,39279,
CO.29,Valle del Cauca,29,CO,3666313,3.75,-76.5,4161425,
CO.28,Tolima,28,CO,3666951,4,-75.25,1365342,
CO.27,Sucre,27,CO,3667725,9,-75,7721,
CO.26,Santander,26,CO,3668578,6.83333,-73.41667,1957789,
CO.25,San Andres y Providencia,25,CO,3670205,12.52449,-81.71983,7554,
CO.24,Risaralda,24,CO,3670698,5,-76,89759,
CO.23,Quindio,23,CO,3671087,4.5,-75.66667,534552,
CO.22,Putumayo,22,CO,3671178,0.5,-76,31132,
CO.21,Norte de Santander,21,CO,3673798,8,-73,1243975,
CO.20,Narino,20,CO,3674021,1.5,-78,1541956,
CO.19,Meta,19,CO,3674810,3.5,-73,783168,
CO.38,Magdalena,38,CO,3675686,10,-74.5,1149917,
CO.17,La Guajira,17,CO,3678847,11.5,-72.5,8856,
CO.16,Huila,16,CO,3680692,2.5,-75.58333,111418,
CO.14,Guaviare,14,CO,3681344,1.91667,-72,95551,
CO.15,Guainia,15,CO,3681652,2.5,-69,3523,
CO.33,Cundinamarca,33,CO,3685413,5,-74.16667,2598245,
CO.12,Cordoba,12,CO,3685889,8.33333,-75.66667,1467929,
CO.11,Choco,11,CO,3686431,6,-77,4543,
CO.10,Cesar,10,CO,3686880,9.33333,-73.5,93279,
CO.09,Cauca,09,CO,3687029,2.5,-76.83333,1268937,
CO.32,Casanare,32,CO,3687173,5.5,-71.5,295353,
CO.08,Caqueta,08,CO,3687479,0.75,-74,42337,
CO.37,Caldas,37,CO,3687951,5.26667,-75.33333,96874,
CO.36,Boyaca,36,CO,3688536,5.66667,-73,1255311,
CO.35,Bolivar,35,CO,3688650,9,-74.33333,24983,
CO.34,Bogota D.C.,34,CO,3688685,4.25,-74.18333,684116,
CO.04,Atlantico,04,CO,3689436,10.75,-75,2166156,
CO.03,Departamento de Arauca,03,CO,3689717,6.66667,-71,232118,
CO.02,Antioquia,02,CO,3689815,7,-75.5,6299886,
CO.01,Amazonas,01,CO,3689982,-1.16667,-71.5,67726,
CR.08,San Jose,08,CR,3621837,9.66667,-84,144242,
CR.07,Puntarenas,07,CR,3622226,9.97794,-84.83068,41929,
CR.06,Limon,06,CR,3623064,10,-83.21667,386862,
CR.04,Heredia,04,CR,3623484,10.33333,-84,433677,
CR.03,Guanacaste,03,CR,3623582,10.5,-85.25,354154,
CR.02,Cartago,02,CR,3624368,9.83333,-83.75,4993,
CR.01,Alajuela,01,CR,3624953,10.5,-84.5,885571,
CU.16,Villa Clara,16,CU,3534168,22.56667,-80,83562,
CU.15,Santiago de Cuba,15,CU,3536725,20.2,-75.93333,14715,
CU.14,Sancti Spiritus,14,CU,3540665,21.91667,-79.41667,465468,
CU.01,Pinar del Rio,01,CU,3544088,22.41667,-83.83333,592851,
CU.03,Matanzas,03,CU,3547394,22.66667,-81.16667,69113,
CU.13,Las Tunas,13,CU,3550595,21.1,-76.9,53627,
CU.04,Isla de la Juventud,04,CU,3556608,21.7,-82.81667,8642,
CU.12,Holguin,12,CU,3556965,20.75,-75.91667,137161,
CU.10,Guantanamo,10,CU,3557685,20.21667,-74.86667,51863,
CU.09,Granma,09,CU,3558052,20.28333,-76.86667,835675,
CU.02,Havana,02,CU,3564073,23.08333,-82.3,72245,
CU.08,Cienfuegos,08,CU,3564120,22.26667,-80.45,45481,
CU.07,Ciego de Avila,07,CU,3564175,21.96667,-78.63333,422576,
CU.05,Camaguey,05,CU,3566062,21.35,-77.85,321992,
CU.AR,Artemisa,AR,CU,7668824,22.814,-82.75606,52392,
CU.MA,Mayabeque,MA,CU,7668827,22.96155,-82.14718,381446,
CV.20,Tarrafal,20,CV,3374161,15.26667,-23.71667,18561,
CV.11,Sao Vicente,11,CV,3374198,16.83333,-25,7561,
CV.15,Santa Catarina,15,CV,3374226,15.1,-23.7,41455,
CV.08,Sal,08,CV,3374249,16.75,-22.91667,2911,
CV.07,Ribeira Grande,07,CV,3374274,17.13333,-25.11667,1921,
CV.14,Praia,14,CV,3374332,14.95,-23.51667,13271,
CV.05,Paul,05,CV,3374391,17.11667,-25.01667,6997,
CV.04,Maio,04,CV,3374487,15.21667,-23.16667,7589,
CV.02,Brava,02,CV,3374832,14.86667,-24.7,6619,
CV.01,Boa Vista,01,CV,3374855,16.08333,-22.83333,8554,
CV.13,Mosteiros,13,CV,3411924,15,-24.35,952,
CV.16,Santa Cruz,16,CV,3411925,15.1,-23.56667,26585,
CV.17,Sao Domingos,17,CV,3411926,15.01667,-23.53333,13699,
CV.18,Sao Filipe,18,CV,3411927,14.93333,-24.43333,22227,
CV.19,Sao Miguel,19,CV,3411928,15.2,-23.65,1563,
CV.21,Porto Novo,21,CV,7602868,17.01667,-25.2,1796,
CV.22,Ribeira Brava,22,CV,7602869,16.61667,-24.2,7564,
CV.24,Santa Catarina do Fogo,24,CV,7602870,14.9,-24.33333,5299,
CV.26,Sao Salvador do Mundo,26,CV,7602871,15.08333,-23.63333,8643,
CV.27,Tarrafal de Sao Nicolau,27,CV,7602872,16.6,-24.35,525,
CV.25,Sao Lourenco dos Orgaos,25,CV,7602873,15.06667,-23.6,8533,
CV.23,Ribeira Grande de Santiago,23,CV,7603281,14.98333,-23.65,8323,
CY.06,Pafos,06,CY,146213,34.9,32.51667,88266,
CY.04,Nicosia,04,CY,146267,35.06667,33.1,32698,
CY.05,Limassol,05,CY,146383,34.76667,32.93333,23533,
CY.03,Larnaka,03,CY,146398,34.91521,33.52615,143192,
CY.02,Keryneia,02,CY,146411,35.28333,33.25,62158,
CY.01,Ammochostos,01,CY,146615,35.33333,33.86667,46629,
CZ.52,Hlavni mesto Praha,52,CZ,3067695,50.08333,14.46667,11675,
CZ.78,South Moravian,78,CZ,3339536,49.20122,16.61339,1196113,
CZ.79,Jihocesky kraj,79,CZ,3339537,49.08333,14.5,62573,
CZ.80,Vysocina,80,CZ,3339538,49.41667,15.5,517114,
CZ.81,Karlovarsky kraj,81,CZ,3339539,50.16667,12.66667,34294,
CZ.82,Kralovehradecky kraj,82,CZ,3339540,50.41667,15.91667,546691,
CZ.83,Liberecky kraj,83,CZ,3339541,50.75,15,427855,
CZ.84,Olomoucky,84,CZ,3339542,49.75,17.16667,635675,
CZ.85,Moravskoslezsky,85,CZ,3339573,49.83333,18,12,
CZ.86,Pardubicky,86,CZ,3339574,49.83333,16.08333,54641,
CZ.87,Plzensky kraj,87,CZ,3339575,49.5,13.16667,55343,
CZ.88,Central Bohemia,88,CZ,3339576,50.12718,14.1964,1284629,
CZ.89,Ustecky kraj,89,CZ,3339577,50.5,13.83333,821468,
CZ.90,Zlin,90,CZ,3339578,49.16667,17.75,59784,
DE.15,Thuringia,15,DE,2822542,50.91667,11,2249882,
DE.10,Schleswig-Holstein,10,DE,2838632,54.2,9.75,283227,
DE.14,Saxony-Anhalt,14,DE,2842565,52,11.7333,2356219,
DE.13,Saxony,13,DE,2842566,51,13.25,4168732,
DE.09,Saarland,09,DE,2842635,49.40472,6.96083,122585,
DE.08,Rheinland-Pfalz,08,DE,2847618,49.66667,7.5,412675,
DE.07,North Rhine-Westphalia,07,DE,2861876,51.21895,6.76339,17872763,
DE.06,Lower Saxony,06,DE,2862926,52.83333,9.16667,7928815,
DE.12,Mecklenburg-Vorpommern,12,DE,2872567,53.83333,12.5,1651216,
DE.05,Hesse,05,DE,2905330,50.55,9,661951,
DE.04,Hamburg,04,DE,2911297,53.58333,10,1774224,
DE.03,Bremen,03,DE,2944387,53.08333,8.83333,661716,
DE.11,Brandenburg,11,DE,2945356,52.45905,13.01582,2511525,
DE.16,Berlin,16,DE,2950157,52.5,13.41667,3442675,
DE.02,Bavaria,02,DE,2951839,49,11.5,1251331,
DE.01,Baden-Wuerttemberg,01,DE,2953481,48.5,9,1744921,
DJ.05,Tadjourah,05,DJ,220781,12,42.5,33133,
DJ.04,Obock,04,DJ,221525,12.25007,43.08369,26537,
DJ.07,Djibouti,07,DJ,223818,11.56,43.06,623891,
DJ.06,Dikhil,06,DJ,223889,11.41667,42.16667,1798,
DJ.01,Ali Sabieh,01,DJ,225282,11.2,42.94,59827,
DJ.08,Arta,08,DJ,449265,11.5,42.75,4547,
DK.17,Capital Region,17,DK,6418538,55.83333,12.33333,168271,
DK.18,Central Jutland,18,DK,6418539,56.16667,9.5,1253998,
DK.19,North Denmark,19,DK,6418540,57,9.66667,58273,
DK.20,Zealand,20,DK,6418541,55.41667,11.83333,82564,
DK.21,South Denmark,21,DK,6418542,55.37911,10.345,12277,
DM.11,Saint Peter,11,DM,3575618,15.51667,-61.45,164,
DM.10,Saint Paul,10,DM,3575619,15.35,-61.38333,7515,
DM.09,Saint Patrick,09,DM,3575620,15.28333,-61.3,8918,
DM.08,Saint Mark,08,DM,3575621,15.21667,-61.36667,194,
DM.07,Saint Luke,07,DM,3575622,15.25094,-61.36726,163,
DM.06,Saint Joseph,06,DM,3575625,15.43333,-61.43333,6213,
DM.05,Saint John,05,DM,3575626,15.58333,-61.45,51,
DM.04,Saint George,04,DM,3575628,15.3,-61.36667,2441,
DM.03,Saint David,03,DM,3575630,15.46667,-61.28333,714,
DM.02,Saint Andrew,02,DM,3575632,15.56667,-61.36667,11122,
DO.27,Valverde,27,DO,3492112,19.58333,-71.05,158293,
DO.26,Santiago Rodriguez,26,DO,3492912,19.41667,-71.33333,59629,
DO.25,Santiago,25,DO,3492918,19.31667,-70.88333,9825,
DO.24,San Pedro de Macoris,24,DO,3493031,18.5,-69.33333,31744,
DO.23,San Juan,23,DO,3493091,18.83333,-71.25,24115,
DO.33,San Cristobal,33,DO,3493186,18.55,-70.2,53288,
DO.21,Sanchez Ramirez,21,DO,3493192,19,-70.16667,151179,
DO.20,Samana,20,DO,3493232,19.25,-69.45,91875,
DO.19,Hermanas Mirabal,19,DO,3493282,19.41667,-70.33333,96356,
DO.18,Puerto Plata,18,DO,3494267,19.75,-70.75,31276,
DO.35,Peravia,35,DO,3495015,18.33333,-70.36667,169865,
DO.16,Pedernales,16,DO,3495136,18,-71.56667,2127,
DO.34,Nacional,34,DO,3496024,18.48333,-69.93333,9654,
DO.32,Monte Plata,32,DO,3496132,18.83333,-69.83333,18376,
DO.15,Monte Cristi,15,DO,3496200,19.71667,-71.46667,11114,
DO.31,Monsenor Nouel,31,DO,3496274,18.91667,-70.41667,167618,
DO.14,Maria Trinidad Sanchez,14,DO,3496772,19.41667,-70,135727,
DO.30,La Vega,30,DO,3499977,19.05,-70.65,38511,
DO.12,La Romana,12,DO,3500955,18.5,-68.96667,219812,
DO.10,La Altagracia,10,DO,3503706,18.58333,-68.63333,1822,
DO.09,Independencia,09,DO,3504326,18.4,-71.63333,5833,
DO.29,Hato Mayor,29,DO,3504766,18.83333,-69.33333,87631,
DO.08,Espaillat,08,DO,3505867,19.58333,-70.41667,22591,
DO.28,El Seibo,28,DO,3506189,18.8,-69.05,89261,
DO.11,Elias Pina,11,DO,3507269,19,-71.63333,63879,
DO.06,Duarte,06,DO,3508718,19.25,-70.08333,28385,
DO.04,Dajabon,04,DO,3508951,19.43333,-71.58333,6246,
DO.03,Barahona,03,DO,3512042,18.16667,-71.25,179239,
DO.02,Baoruco,02,DO,3512050,18.5,-71.35,9148,
DO.01,Azua,01,DO,3512209,18.58333,-70.8,28857,
DO.36,San Jose de Ocoa,36,DO,6201372,18.54882,-70.50877,62368,
DO.37,Santo Domingo,37,DO,6201373,18.56678,-69.84874,2995211,
DZ.15,Tlemcen,15,DZ,2475683,34.66667,-1.41667,949135,
DZ.14,Tizi Ouzou,14,DZ,2475741,36.75,4.25,112768,
DZ.56,Tissemsilt,56,DZ,2475858,35.75,1.75,294476,
DZ.55,Tipaza,55,DZ,2476027,36.58333,2.41667,5911,
DZ.54,Tindouf,54,DZ,2476302,27.41667,-5.83333,49149,
DZ.13,Tiaret,13,DZ,2476893,34.91667,1.58333,846823,
DZ.33,Tebessa,33,DZ,2477457,35,7.83333,64873,
DZ.53,Tamanrasset,53,DZ,2478217,23.55,5.18333,176637,
DZ.52,Souk Ahras,52,DZ,2479213,36.16667,7.91667,438127,
DZ.31,Skikda,31,DZ,2479532,36.75,6.83333,89868,
DZ.30,Sidi Bel Abbes,30,DZ,2481001,34.83333,-0.5,64744,
DZ.12,Setif,12,DZ,2481696,36.16667,5.5,1489979,
DZ.10,Saida,10,DZ,2482557,34.66667,0.33333,33641,
DZ.51,Relizane,51,DZ,2483666,35.75,0.91667,72618,
DZ.29,Oum el Bouaghi,29,DZ,2484618,35.83333,7.08333,621612,
DZ.50,Ouargla,50,DZ,2485794,30.68333,5.26667,558558,
DZ.09,Oran,09,DZ,2485920,35.66667,-0.5,145478,
DZ.49,Naama,49,DZ,2486512,33.5,-0.83333,192891,
DZ.27,M'Sila,27,DZ,2486682,35.28333,4.25,99591,
DZ.07,Mostaganem,07,DZ,2487130,36,0.33333,737118,
DZ.48,Mila,48,DZ,2487449,36.41667,6.16667,766886,
DZ.06,Medea,06,DZ,2488831,36.08333,3,819932,
DZ.26,Mascara,26,DZ,2490095,35.41667,0.16667,78473,
DZ.25,Laghouat,25,DZ,2491188,33.58333,2.66667,45562,
DZ.47,Khenchela,47,DZ,2491887,35,7,386683,
DZ.24,Jijel,24,DZ,2492910,36.75,6,636948,
DZ.46,Illizi,46,DZ,2493455,27.9,7.95,52333,
DZ.23,Guelma,23,DZ,2495659,36.41667,7.41667,48243,
DZ.45,Ghardaia,45,DZ,2496045,32.45586,3.51835,363598,
DZ.44,El Tarf,44,DZ,2497322,36.75,8.16667,48414,
DZ.43,El Oued,43,DZ,2497406,33.18333,7.23333,647548,
DZ.42,El Bayadh,42,DZ,2498541,32.5,1.16667,228624,
DZ.22,Djelfa,22,DZ,2500013,34.33333,3.66667,1164,
DZ.04,Constantine,04,DZ,2501147,36.33333,6.66667,938475,
DZ.41,Chlef,41,DZ,2501296,36.25,1.25,1288,
DZ.40,Boumerdes,40,DZ,2502638,36.75,3.66667,8283,
DZ.21,Bouira,21,DZ,2502951,36.25,3.91667,695583,
DZ.39,Bordj Bou Arreridj,39,DZ,2503699,36.08333,4.75,628475,
DZ.20,Blida,20,DZ,2503765,36.58333,3,12937,
DZ.19,Biskra,19,DZ,2503822,34.73333,5.91667,721356,
DZ.18,Bejaia,18,DZ,2505325,36.66667,4.91667,912577,
DZ.38,Bechar,38,DZ,2505525,31.65632,-2.36701,2761,
DZ.03,Batna,03,DZ,2505569,35.5,5.91667,1119791,
DZ.37,Annaba,37,DZ,2506994,36.83333,7.58333,69499,
DZ.01,Algiers,01,DZ,2507475,36.74053,3.00957,2988145,
DZ.36,Ain Temouchent,36,DZ,2507899,35.33333,-1.08333,371239,
DZ.35,Ain Defla,35,DZ,2508226,36.16667,2.16667,76613,
DZ.34,Adrar,34,DZ,2508807,26.73333,-0.91667,399714,
DZ.BB,Bordj Badji Mokhtar,BB,DZ,12226383,23.25092,-0.61869,,
DZ.TM,Timimoun,TM,DZ,12226384,29.72288,0.86559,,
DZ.BA,Beni Abbes,BA,DZ,12226385,29.47559,-2.72001,,
DZ.IG,In Guezzam,IG,DZ,12226386,20.43821,4.50798,,
DZ.IS,In Salah,IS,DZ,12226387,27.3357,3.42239,,
DZ.DJ,Djanet,DJ,DZ,12226388,24.16724,9.32725,,
DZ.EM,El Menia,EM,DZ,12226389,30.71909,3.00376,,
DZ.TG,Touggourt,TG,DZ,12226390,32.93315,6.34115,,
DZ.MG,El Mghair,MG,DZ,12226391,33.91588,5.65989,,
DZ.OD,Ouled Djellal,OD,DZ,12226392,34.21429,4.81345,,
EC.20,Zamora-Chinchipe,20,EC,3649953,-4.25,-78.83333,91376,
EC.19,Tungurahua,19,EC,3650445,-1.25,-78.5,581389,
EC.18,Pichincha,18,EC,3653224,-0.08333,-78.5,2576287,
EC.17,Pastaza,17,EC,3653392,-1.66667,-76.83333,83933,
EC.23,Napo,23,EC,3653890,-0.62915,-77.83164,13697,
EC.15,Morona-Santiago,15,EC,3654005,-2.5,-77.91667,14794,
EC.14,Manabi,14,EC,3654451,-0.66667,-80.08333,136978,
EC.13,Los Rios,13,EC,3654592,-1.41667,-79.58333,778115,
EC.12,Loja,12,EC,3654665,-4.16667,-79.5,448966,
EC.11,Imbabura,11,EC,3655635,0.37631,-78.32371,398244,
EC.10,Guayas,10,EC,3657505,-2,-79.83333,3645483,
EC.01,Galapagos,01,EC,3657879,-0.67015,-90.87341,25124,
EC.09,Esmeraldas,09,EC,3657986,0.83333,-79.25,53492,
EC.08,El Oro,08,EC,3658195,-3.5,-79.83333,6659,
EC.07,Cotopaxi,07,EC,3658766,-0.83333,-78.83333,4925,
EC.06,Chimborazo,06,EC,3659237,-1.91667,-78.75,458581,
EC.05,Carchi,05,EC,3659718,0.75,-78.08333,164524,
EC.04,Canar,04,EC,3659849,-2.5,-79,58185,
EC.03,Bolivar,03,EC,3660130,-1.58333,-79.08333,183641,
EC.02,Azuay,02,EC,3660431,-3.08333,-79.33333,712127,
EC.22,Sucumbios,22,EC,3830305,0.1,-76.86667,176472,
EC.24,Orellana,24,EC,3830306,-0.75,-76.41667,136396,
EC.26,Santo Domingo de los Tsachilas,26,EC,7062136,-0.28945,-79.18577,36813,
EC.25,Santa Elena,25,EC,7062138,-2.08333,-80.58333,38693,
EE.21,Vorumaa,21,EE,587448,57.76667,26.93333,38687,
EE.20,Viljandimaa,20,EE,587590,58.33333,25.56667,56498,
EE.19,Valgamaa,19,EE,587875,57.91667,26.16667,34789,
EE.18,Tartu,18,EE,588334,58.38065,26.72496,15139,
EE.14,Saare,14,EE,588879,58.41667,22.58333,35275,
EE.13,Raplamaa,13,EE,589115,58.96667,24.7,371,
EE.12,Polvamaa,12,EE,589373,58.08333,27.16667,3173,
EE.11,Paernumaa,11,EE,589576,58.46667,24.56667,81428,
EE.08,Laeaene-Virumaa,08,EE,590854,59.25,26.33333,6649,
EE.07,Laeaene,07,EE,590856,58.93333,23.55,2381,
EE.05,Jogevamaa,05,EE,591901,58.73333,26.46667,37546,
EE.04,Jaervamaa,04,EE,591961,58.91667,25.66667,38142,
EE.03,Ida-Virumaa,03,EE,592075,59.25,27.41667,173514,
EE.02,Hiiumaa,02,EE,592133,58.9,22.63333,1275,
EE.01,Harjumaa,01,EE,592170,59.33333,24.83333,555566,
EG.24,Sohag,24,EG,347794,26.5,31.7,4469151,
EG.27,North Sinai,27,EG,349401,30.5,33.7,314258,
EG.23,Qena,23,EG,350546,25.8,32.75,2959175,
EG.22,Matruh,22,EG,352603,29.7,27.5,427573,
EG.21,Kafr el-Sheikh,21,EG,354500,31.3,30.9,393754,
EG.26,South Sinai,26,EG,355182,29,33.8,164574,
EG.20,Damietta,20,EG,358044,31.35,31.75,176132,
EG.19,Port Said,19,EG,358617,31.12339,32.41926,538378,
EG.18,Beni Suweif,18,EG,359171,28.9,30.6,2771138,
EG.17,Asyut,17,EG,359781,27.2,31.1,4123441,
EG.16,Aswan,16,EG,359787,23.3,32.9,1394687,
EG.15,Suez,15,EG,359797,29.7,32.3,488125,
EG.14,Sharqia,14,EG,360016,30.7,31.8,519642,
EG.13,New Valley,13,EG,360483,24.8,28.9,169598,
EG.12,Qalyubia,12,EG,360621,30.3,31.25,3881462,
EG.11,Cairo,11,EG,360631,30.05,31.65,7734614,
EG.10,Minya,10,EG,360688,28.1,30,54421,
EG.09,Monufia,09,EG,360689,30.5,31,3228928,
EG.08,Giza,08,EG,360997,29.99776,31.05286,3326444,
EG.07,Ismailia,07,EG,361056,30.6,32.4,863315,
EG.06,Alexandria,06,EG,361059,31,29.75,3811516,
EG.05,Gharbia,05,EG,361294,30.9,31,3928,
EG.04,Faiyum,04,EG,361323,29.3,30.5,372181,
EG.03,Beheira,03,EG,361370,30.6,30.2,4689632,
EG.02,Red Sea,02,EG,361468,27.18624,33.78845,288233,
EG.01,Dakahlia,01,EG,361849,31.1,31.6,5818363,
EG.28,Luxor,28,EG,7603259,25.7,32.65,1119222,
ER.01,Anseba,01,ER,448497,16.5,37.5,611627,
ER.02,Debub,02,ER,448498,14.83333,38.83333,1476765,
ER.03,Southern Red Sea,03,ER,448499,13.75,41.5,289382,
ER.04,Gash-Barka,04,ER,448500,15.25,37.5,786964,
ER.05,Maekel,05,ER,448501,15.33333,38.91667,766534,
ER.06,Northern Red Sea,06,ER,448502,16,39,59934,
ES.31,Murcia,31,ES,2513413,38,-1.5,144652,
ES.CE,Ceuta,CE,ES,2519582,35.89028,-5.3075,78674,
ES.07,Balearic Islands,07,ES,2521383,39.58876,2.90314,195426,
ES.51,Andalusia,51,ES,2593109,37.5,-4.58333,832923,
ES.53,Canary Islands,53,ES,2593110,28,-15.5,213992,
ES.54,Castille-La Mancha,54,ES,2593111,39.5,-3,281313,
ES.57,Extremadura,57,ES,2593112,39.16667,-6.16667,11241,
ES.60,Valencia,60,ES,2593113,39.5,-0.75,594675,
ES.34,Asturias,34,ES,3114710,43.33333,-6,185289,
ES.32,Navarre,32,ES,3115609,42.75,-1.66667,63578,
ES.29,Madrid,29,ES,3117732,40.42526,-3.69063,6386932,
ES.27,La Rioja,27,ES,3336897,42.3,-2.5,32172,
ES.39,Cantabria,39,ES,3336898,43.2,-4.03333,589235,
ES.52,Aragon,52,ES,3336899,41.5,-0.66667,1345473,
ES.55,Castille and Leon,55,ES,3336900,41.66667,-4.25,2563521,
ES.56,Catalonia,56,ES,3336901,41.82046,1.86768,747542,
ES.58,Galicia,58,ES,3336902,42.75508,-7.86621,279689,
ES.59,Basque Country,59,ES,3336903,43,-2.75,2172175,
ES.ML,Melilla,ML,ES,6362988,35.29215,-2.94434,7346,
ET.44,Addis Ababa,44,ET,444178,9,38.75,3384569,
ET.45,Afar,45,ET,444179,12,41.5,162995,
ET.46,Amhara,46,ET,444180,11.5,38.5,17221976,
ET.47,Binshangul Gumuz,47,ET,444181,11,35.5,784345,
ET.48,Dire Dawa,48,ET,444182,9.567,42.014,67321,
ET.49,Gambela,49,ET,444183,7.83333,34.5,435999,
ET.50,Harari,50,ET,444184,9.25,42.16667,183415,
ET.51,Oromiya,51,ET,444185,8,39,27158471,
ET.52,Somali,52,ET,444186,7,44,5318,
ET.53,Tigray,53,ET,444187,14.16667,38.83333,52475,
ET.54,SNNPR,54,ET,444188,6.05862,36.7273,1542531,
FI.19,Lapland,19,FI,830603,67.75,26.5,182885,
FI.18,Kainuu,18,FI,830664,64.5,28.5,84498,
FI.17,North Ostrobothnia,17,FI,830667,65,26.41667,3849,
FI.16,Central Ostrobothnia,16,FI,830675,63.58333,24.08333,716,
FI.15,Ostrobothnia,15,FI,830676,63.08333,22.16667,18384,
FI.14,South Ostrobothnia,14,FI,830682,62.75,23,192675,
FI.13,Central Finland,13,FI,830685,62.5,25.5,27532,
FI.12,North Karelia,12,FI,830686,62.83333,29.91667,1665,
FI.11,North Savo,11,FI,830690,63.16667,27.5,25294,
FI.10,South Savo,10,FI,830695,61.75,27.83333,152518,
FI.09,South Karelia,09,FI,830699,60.96667,28.16667,132252,
FI.08,Kymenlaakso,08,FI,830703,60.83333,26.91667,184317,
FI.06,Pirkanmaa,06,FI,830704,61.7,23.71667,462627,
FI.05,Kanta-Haeme,05,FI,830705,60.91667,24.33333,167442,
FI.02,Southwest Finland,02,FI,830708,60.5,22.25,4788,
FI.01,Uusimaa,01,FI,830709,60.41667,24.75,1585473,
FI.07,Paijat-Hame,07,FI,831040,61.25,25.83333,19959,
FI.04,Satakunta,04,FI,831041,61.5,22.16667,232687,
FJ.05,Western,05,FJ,2194371,-18,177.5,32,
FJ.03,Northern,03,FJ,2199295,-16.5,179.5,135,
FJ.01,Central,01,FJ,2205272,-18,178.33333,342,
FJ.02,Eastern,02,FJ,4036647,-18.5,180,3796,
FJ.04,Rotuma,04,FJ,6324593,-12.50798,177.06596,281,
FM.04,Yap,04,FM,2081175,9.538,138.097,11241,173
FM.02,Pohnpei,02,FM,2081550,6.964,158.2056,34486,0
FM.01,Kosrae,01,FM,2082036,5.325,162.981,7686,633
FM.03,Chuuk,03,FM,2082282,7.44077,151.85431,54595,446
FO.VG,Vagar,VG,FO,2610816,62.08333,-7.25,2972,
FO.SU,Suduroy,SU,FO,2612137,61.48333,-6.81667,4678,
FO.ST,Streymoy,ST,FO,2612225,62.13333,-7,3356,
FO.SA,Sandoy,SA,FO,2614219,61.83333,-6.75,1353,
FO.NO,Nordoyar,NO,FO,2616145,62.28333,-6.58333,6,
FO.OS,Eysturoy,OS,FO,2622387,62.21667,-6.86667,181,
FR.93,Provence-Alpes-Cote d'Azur,93,FR,2985244,43.91667,6.08333,486415,
FR.52,Pays de la Loire,52,FR,2988289,47.5,-0.83333,3482594,
FR.11,Ile-de-France,11,FR,3012874,48.7,2.5,11598866,
FR.94,Corsica,94,FR,3023519,42.06153,8.9542,29929,
FR.24,Centre,24,FR,3027939,47.5,1.75,2526919,
FR.53,Brittany,53,FR,3030293,48.16667,-2.83333,312288,
FR.27,Bourgogne-Franche-Comte,27,FR,11071619,47.06981,5.04822,2816814,
FR.75,Nouvelle-Aquitaine,75,FR,11071620,46.09165,1.26892,588594,
FR.28,Normandy,28,FR,11071621,49.19906,0.49988,3322757,
FR.44,Grand Est,44,FR,11071622,48.69821,5.8667,5552388,
FR.76,Occitanie,76,FR,11071623,44.02722,1.63559,5626858,
FR.32,Hauts-de-France,32,FR,11071624,49.61232,2.65594,597398,
FR.84,Auvergne-Rhone-Alpes,84,FR,11071625,45.482,5.37437,7695264,
GA.09,Woleu-Ntem,09,GA,2396076,1.5,12,13428,
GA.08,Ogooue-Maritime,08,GA,2396924,-1.58333,9.58333,134913,
GA.07,Ogooue-Lolo,07,GA,2396925,-0.83333,12.66667,651,
GA.06,Ogooue-Ivindo,06,GA,2396926,0.66667,12.83333,67326,
GA.05,Nyanga,05,GA,2397141,-3,11,5433,
GA.04,Ngouni,04,GA,2397466,-1.63333,11.16667,17173,
GA.03,Moyen-Ogooue,03,GA,2397842,-0.41667,10.58333,5837,
GA.02,Haut-Ogooue,02,GA,2400454,-1.3,13.9,143715,
GA.01,Estuaire,01,GA,2400682,0.3,10.03333,638219,
GB.WLS,Wales,WLS,GB,2634895,52.5,-3.5,311315,
GB.SCT,Scotland,SCT,GB,2638360,56,-4,5447,
GB.NIR,Northern Ireland,NIR,GB,2641364,54.5,-6.5,1862137,
GB.ENG,England,ENG,GB,6269131,52.16045,-0.70312,56286961,
GD.06,Saint Patrick,06,GD,3579907,12.2,-61.63333,1533,
GD.05,Saint Mark,05,GD,3579913,12.18333,-61.68333,467,
GD.04,Saint John,04,GD,3579919,12.13333,-61.71667,9176,
GD.03,Saint George,03,GD,3579926,12.05,-61.73333,33264,
GD.02,Saint David,02,GD,3579932,12.05,-61.66667,11486,
GD.01,Saint Andrew,01,GD,3579938,12.11667,-61.65,25339,
GD.10,Carriacou and Petite Martinique,10,GD,7303836,12.47303,-61.45379,5,
GE.51,T'bilisi,51,GE,611716,41.71667,44.83333,116539,
GE.04,Achara,04,GE,615929,41.66667,42,373,
GE.68,Kvemo Kartli,68,GE,865536,41.51667,44.51667,423,
GE.67,Kakheti,67,GE,865537,41.75,45.71667,31,
GE.65,Guria,65,GE,865538,41.96667,42.2,141827,
GE.66,Imereti,66,GE,865539,42.16667,42.98333,486,
GE.73,Shida Kartli,73,GE,865540,42.32,44.14,32657,
GE.69,Mtskheta-Mtianeti,69,GE,865541,42.28333,44.75,122576,
GE.70,Racha-Lechkhumi and Kvemo Svaneti,70,GE,865542,42.63333,43.13333,48571,
GE.71,Samegrelo and Zemo Svaneti,71,GE,865543,42.70076,42.21496,311,
GE.72,Samtskhe-Javakheti,72,GE,865544,41.58333,43.26667,27443,
GE.02,Abkhazia,02,GE,6643410,43.0005,41.00501,242862,
GF.GF,Guyane,GF,GF,6690605,3.99929,-52.99856,21331,
GG.6417213,St Pierre du Bois,6417213,GG,6417213,49.44556,-2.64361,2188,
GG.6417214,Torteval,6417214,GG,6417214,49.43,-2.64889,973,
GG.6417215,Saint Saviour,6417215,GG,6417215,49.44972,-2.62389,2696,
GG.6417223,Forest,6417223,GG,6417223,49.42583,-2.59194,1549,
GG.6417224,St Martin,6417224,GG,6417224,49.43333,-2.55722,6267,
GG.6417226,Saint Andrew,6417226,GG,6417226,49.44778,-2.57361,249,
GG.6417228,St Peter Port,6417228,GG,6417228,49.46,-2.55194,16488,
GG.6417229,Castel,6417229,GG,6417229,49.465,-2.59361,8975,
GG.6417230,Vale,6417230,GG,6417230,49.49361,-2.52833,9573,
GG.6417233,St Sampson,6417233,GG,6417233,49.48194,-2.53722,8592,
GG.8989934,Alderney,8989934,GG,8989934,49.71677,-2.19851,193,
GH.09,Western,09,GH,2294076,5.45,-2.25,237621,
GH.08,Volta,08,GH,2294234,6.4,0.5,173871,
GH.11,Upper West,11,GH,2294286,10.33333,-2.25,61452,
GH.10,Upper East,10,GH,2294291,10.75,-0.75,948118,
GH.06,Northern,06,GH,2297169,9.45,-0.1,23152,
GH.01,Greater Accra,01,GH,2300569,5.75,0,346792,
GH.05,Eastern,05,GH,2301360,6.5,-0.5,2633154,
GH.04,Central,04,GH,2302353,5.5,-1,1717543,
GH.02,Ashanti,02,GH,2304116,6.75,-1.5,41542,
GH.13,Bono,13,GH,12105069,7.65,-2.5,18252,
GH.16,Oti,16,GH,12105070,7.9,0.3,742664,
GH.15,North East,15,GH,12105071,10.4,-0.6,59,
GH.12,Ahafo,12,GH,12105072,7,-2.45,6,
GH.14,Bono East,14,GH,12105073,7.75,-1.05,134421,
GH.17,Savannah,17,GH,12105074,9.15,-1.6,58,
GH.18,Western North,18,GH,12105075,6.3,-2.8,92839,
GL.04,Kujalleq,04,GL,7602005,60.71905,-46.03683,7151,
GL.06,Qeqqata,06,GL,7602006,66.93305,-53.67517,962,
GL.07,Sermersooq,07,GL,7602007,64.18284,-51.71831,21868,
GL.11839534,Qeqertalik,11839534,GL,11839534,68.70716,-52.84289,65,
GL.11839537,Avannaata,11839537,GL,11839537,69.21536,-51.08301,16,
GM.05,Western,05,GM,2411683,13.23333,-16.35,69974,
GM.04,Upper River,04,GM,2411711,13.36667,-14.16667,187972,
GM.07,North Bank,07,GM,2412353,13.5,-16,22154,
GM.03,Central River,03,GM,2412707,13.58333,-14.91667,3584,
GM.02,Lower River,02,GM,2412716,13.4,-15.66,73474,
GM.01,Banjul,01,GM,2413875,13.45,-16.58333,34589,
GN.04,Conakry,04,GN,2422464,9.60703,-13.597,166973,
GN.B,Boke,B,GN,8335085,11.2625,-14.32992,183147,
GN.F,Faranah,F,GN,8335086,10.3375,-10.69583,941554,
GN.K,Kankan,K,GN,8335087,10.4,-9.25,1972537,
GN.D,Kindia,D,GN,8335088,10.08667,-13.21333,1561374,
GN.L,Labe,L,GN,8335089,11.61,-12.08667,994458,
GN.M,Mamou,M,GN,8335090,10.69444,-12.29444,731188,
GN.N,Nzerekore,N,GN,8335091,8.20833,-9.06944,15783,
GP.GP,Guadeloupe,GP,GP,6690363,16.25011,-61.58369,4584,
GQ.03,Annobon,03,GQ,2310307,-1.43829,5.63558,4433,
GQ.04,Bioko Norte,04,GQ,2566978,3.68333,8.78333,231629,
GQ.05,Bioko Sur,05,GQ,2566979,3.41667,8.66667,25972,
GQ.06,Centro Sur,06,GQ,2566980,1.5,10.41667,12962,
GQ.07,Kie-Ntem,07,GQ,2566981,2.05,11,16187,
GQ.08,Litoral,08,GQ,2566982,1.5,9.75,3,
GQ.09,Wele-Nzas,09,GQ,2566983,1.5,11.1,157,
GQ.10,Djibloho,10,GQ,12168385,1.59358,10.82252,,
GR.736572,Mount Athos,736572,GR,736572,40.15798,24.33021,2262,
GR.ESYE31,Attica,ESYE31,GR,6692632,37.92037,23.9035,376181,
GR.ESYE24,Central Greece,ESYE24,GR,6697800,38.35243,23.13995,65329,
GR.ESYE12,Central Macedonia,ESYE12,GR,6697801,40.91351,22.84058,1871952,
GR.ESYE43,Crete,ESYE43,GR,6697802,35.15585,24.89502,61131,
GR.ESYE11,East Macedonia and Thrace,ESYE11,GR,6697803,40.94671,25.33447,61167,
GR.ESYE21,Epirus,ESYE21,GR,6697804,39.23651,20.71472,35382,
GR.ESYE22,Ionian Islands,ESYE22,GR,6697805,37.79299,20.78305,212984,
GR.ESYE41,North Aegean,ESYE41,GR,6697806,37.71942,26.81956,26121,
GR.ESYE25,Peloponnese,ESYE25,GR,6697807,37.62728,22.43958,638942,
GR.ESYE42,South Aegean,ESYE42,GR,6697808,36.16726,27.90603,32686,
GR.ESYE14,Thessaly,ESYE14,GR,6697809,39.40224,21.98364,753888,
GR.ESYE23,West Greece,ESYE23,GR,6697810,38.48799,21.2915,7456,
GR.ESYE13,West Macedonia,ESYE13,GR,6697811,40.26695,21.32446,31522,
GT.22,Zacapa,22,GT,3587586,15,-89.5,245374,
GT.21,Totonicapan,21,GT,3588257,15,-91.33333,339254,
GT.20,Suchitepeque,20,GT,3588668,14.38084,-91.43046,554695,
GT.19,Solola,19,GT,3588697,14.66667,-91.25,37661,
GT.18,Santa Rosa,18,GT,3589172,14.16667,-90.3,3137,
GT.17,San Marcos,17,GT,3589801,15,-91.91667,794951,
GT.16,Sacatepequez,16,GT,3590686,14.58333,-90.75,56,
GT.15,Retalhuleu,15,GT,3590857,14.33333,-91.83333,4,
GT.14,Quiche,14,GT,3590964,15.5,-90.91667,95575,
GT.13,Quetzaltenango,13,GT,3590978,14.75,-91.66667,667139,
GT.12,Peten,12,GT,3591410,16.83333,-90,366735,
GT.11,Jutiapa,11,GT,3595067,14.16667,-89.83333,6398,
GT.10,Jalapa,10,GT,3595236,14.58333,-89.91667,395,
GT.09,Izabal,09,GT,3595259,15.5,-89,31436,
GT.08,Huehuetenango,08,GT,3595415,15.66667,-91.58333,846544,
GT.07,Guatemala,07,GT,3595530,14.66667,-90.5,2541581,
GT.06,Escuintla,06,GT,3595802,14.16667,-91,538746,
GT.05,El Progreso,05,GT,3596416,14.83333,-90,163537,
GT.04,Chiquimula,04,GT,3598464,14.66667,-89.41667,79815,
GT.03,Chimaltenango,03,GT,3598571,14.66667,-90.91667,648615,
GT.02,Baja Verapaz,02,GT,3599602,15.08333,-90.33333,27521,
GT.01,Alta Verapaz,01,GT,3599773,15.66667,-90,776246,
GU.PI,Piti,PI,GU,4038478,13.46256,144.69282,1666,318
GU.SR,Santa Rita,SR,GU,4038555,13.38609,144.67208,75,266
GU.SJ,Sinajana,SJ,GU,4038590,13.46334,144.75381,2592,63
GU.TF,Talofofo,TF,GU,4038652,13.35522,144.7588,3215,391
GU.TM,Tamuning,TM,GU,4038661,13.48759,144.78094,19685,107
GU.UM,Umatac,UM,GU,4038739,13.30739,144.66909,93,391
GU.YG,Yigo,YG,GU,4038796,13.53603,144.88913,2539,253
GU.YN,Yona,YN,GU,4038811,13.40972,144.77714,6484,328
GU.ME,Merizo,ME,GU,4043396,13.27125,144.67464,185,337
GU.MA,Mangilao,MA,GU,4043416,13.44766,144.80071,15191,192
GU.AH,Agana Heights,AH,GU,4043524,13.46559,144.74773,394,159
GU.CP,Chalan Pago-Ordot,CP,GU,4043614,13.4474,144.75888,6822,153
GU.AS,Asan,AS,GU,4043691,13.47214,144.7164,2137,318
GU.AT,Agat,AT,GU,4043725,13.35619,144.66938,5656,406
GU.DD,Dededo,DD,GU,4043877,13.51776,144.83898,44943,184
GU.BA,Barrigada,BA,GU,4043885,13.46906,144.7988,8875,200
GU.AN,Hagatna,AN,GU,4044019,13.47279,144.75788,11,30
GU.IN,Inarajan,IN,GU,4044041,13.29414,144.73479,352,379
GU.MT,Mongmong-Toto-Maite,MT,GU,4044148,13.46857,144.78191,6825,67
GW.07,Tombali,07,GW,2368955,11.3,-15,15485,
GW.02,Quinara,02,GW,2370360,11.66667,-15.08333,62261,
GW.04,Oio,04,GW,2371071,12.25,-15.25,19657,
GW.10,Gabu,10,GW,2372533,12.16667,-14.16667,19293,
GW.06,Cacheu,06,GW,2374312,12,-16.16667,179739,
GW.05,Bolama,05,GW,2374689,11.15484,-16.00926,3145,
GW.11,Bissau,11,GW,2374776,11.85391,-15.59097,395954,
GW.12,Biombo,12,GW,2374820,11.88281,-15.84332,69751,
GW.01,Bafata,01,GW,2375255,12.16667,-14.71667,194591,
GY.19,Upper Takutu-Upper Essequibo,19,GY,3375463,2.91667,-59,1776,
GY.18,Upper Demerara-Berbice,18,GY,3375469,5.5,-58.33333,44878,
GY.17,Potaro-Siparuni,17,GY,3376386,4.9,-59.3,6671,
GY.16,Pomeroon-Supenaam,16,GY,3376407,7.08333,-58.83333,4681,
GY.15,Mahaica-Berbice,15,GY,3377274,6.25,-57.83333,524,
GY.14,Essequibo Islands-West Demerara,14,GY,3378741,6.66667,-58.5,17416,
GY.13,East Berbice-Corentyne,13,GY,3378840,4,-58.16667,19431,
GY.12,Demerara-Mahaica,12,GY,3378950,6.5,-58.08333,313429,
GY.11,Cuyuni-Mazaruni,11,GY,3379023,6,-60,228,
GY.10,Barima-Waini,10,GY,3379515,7.66667,-59.75,26941,
HK.NYL,Yuen Long,NYL,HK,1818224,22.41667,114.05,534192,
HK.NTW,Tsuen Wan,NTW,HK,1818458,22.37908,114.10598,288728,
HK.NTP,Tai Po,NTP,HK,1818672,22.43995,114.1654,293542,
HK.NSK,Sai Kung,NSK,HK,1819049,22.38198,114.27017,46442,
HK.NIS,Islands,NIS,HK,1819708,22.26382,113.96038,14188,
HK.HCW,Central and Western,HCW,HK,7533598,22.28219,114.14486,251519,
HK.HWC,Wan Chai,HWC,HK,7533607,22.27702,114.17232,155196,
HK.HEA,Eastern,HEA,HK,7533608,22.27722,114.22519,58769,
HK.HSO,Southern,HSO,HK,7533609,22.24112,114.20769,275162,
HK.KYT,Yau Tsim Mong,KYT,HK,7533610,22.31327,114.16923,28548,
HK.KSS,Sham Shui Po,KSS,HK,7533611,22.32989,114.1625,36554,
HK.KKC,Kowloon City,KKC,HK,7533612,22.32866,114.19121,36251,
HK.KWT,Wong Tai Sin,KWT,HK,7533613,22.34299,114.19302,423521,
HK.KKT,Kwun Tong,KKT,HK,7533614,22.31326,114.22581,587423,
HK.NKT,Kwai Tsing,NKT,HK,7533615,22.35288,114.10004,5233,
HK.NTM,Tuen Mun,NTM,HK,7533616,22.39161,113.96792,5235,
HK.NNO,North,NNO,HK,7533617,22.49471,114.13812,2873,
HK.NST,Sha Tin,NST,HK,7533618,22.38715,114.19534,63273,
HN.18,Yoro,18,HN,3600193,15.25,-87.16667,53886,
HN.17,Valle,17,HN,3600456,13.58333,-87.58333,16346,
HN.16,Santa Barbara,16,HN,3601689,15.08333,-88.33333,368298,
HN.15,Olancho,15,HN,3604249,14.83333,-86,458365,
HN.14,Ocotepeque,14,HN,3604318,14.5,-89,118558,
HN.13,Lempira,13,HN,3606066,14.5,-88.58333,27791,
HN.12,La Paz,12,HN,3607251,14.08333,-87.91667,173731,
HN.11,Bay Islands,11,HN,3608814,16.09597,-86.93291,65932,
HN.10,Intibuca,10,HN,3608833,14.33333,-88.16667,23259,
HN.09,Gracias a Dios,09,HN,3609583,15.25,-84.33333,76278,
HN.08,Francisco Morazan,08,HN,3609672,14.25,-87.16667,1687,
HN.07,El Paraiso,07,HN,3610942,14.08333,-86.5,383565,
HN.06,Cortes,06,HN,3613140,15.41667,-88,12251,
HN.05,Copan,05,HN,3613229,14.91667,-88.91667,382722,
HN.04,Comayagua,04,HN,3613319,14.58333,-87.66667,39643,
HN.03,Colon,03,HN,3613358,15.75,-85.66667,319786,
HN.02,Choluteca,02,HN,3613527,13.33333,-87.08333,4235,
HN.01,Atlantida,01,HN,3615027,15.66667,-87,1137,
HR.01,Bjelovarsko-Bilogorska,01,HR,3337511,45.66667,17,119764,
HR.02,Slavonski Brod-Posavina,02,HR,3337512,45.16667,17.75,158575,
HR.03,Dubrovacko-Neretvanska,03,HR,3337513,42.65361,18.09472,122568,
HR.04,Istria,04,HR,3337514,45.25,13.91667,2855,
HR.05,Karlovacka,05,HR,3337515,45.33333,15.58333,128899,
HR.06,Koprivnicko-Krizevacka,06,HR,3337518,46.16667,16.83333,115584,
HR.07,Krapinsko-Zagorska,07,HR,3337519,46.08333,16,132892,
HR.08,Licko-Senjska,08,HR,3337520,44.66667,15.41667,5927,
HR.09,Medimurska,09,HR,3337521,46.41667,16.5,11384,
HR.10,Osjecko-Baranjska,10,HR,3337522,45.53997,18.62977,3532,
HR.11,Pozesko-Slavonska,11,HR,3337523,45.41667,17.66667,7834,
HR.12,Primorsko-Goranska,12,HR,3337524,45.454,14.594,296195,
HR.13,Sibensko-Kniniska,13,HR,3337525,43.83333,15.91667,19375,
HR.14,Sisacko-Moslavacka,14,HR,3337526,45.41667,16.5,172439,
HR.15,Split-Dalmatia,15,HR,3337527,43.16667,16.5,454798,
HR.16,Varazdinska,16,HR,3337528,46.25,16.33333,175951,
HR.18,Vukovar-Sirmium,18,HR,3337529,45.16667,18.91667,179521,
HR.19,Zadarska,19,HR,3337530,44.08333,15.33333,1717,
HR.20,Zagrebacka,20,HR,3337531,45.75,16.08333,31766,
HR.21,City of Zagreb,21,HR,3337532,45.81307,15.9773,7917,
HR.17,Virovitick-Podravska,17,HR,3337533,45.75,17.58333,84836,
HT.13,Sud-Est,13,HT,3716950,18.3,-72.4,5182,
HT.12,Sud,12,HT,3716952,18.3,-73.73333,7476,
HT.11,Ouest,11,HT,3719432,18.66381,-72.29141,366462,
HT.03,Nord-Ouest,03,HT,3719536,19.83333,-73,72887,
HT.10,Nord-Est,10,HT,3719540,19.48897,-71.85713,3493,
HT.09,Nord,09,HT,3719543,19.6,-72.3,8722,
HT.14,Grandans,14,HT,3724613,18.5,-74.08333,337,
HT.07,Centre,07,HT,3728069,19,-72,56543,
HT.06,Artibonite,06,HT,3731053,19.33333,-72.5,1727524,
HT.15,Nippes,15,HT,7115999,18.44835,-73.4285,266,
HU.18,Szabolcs-Szatmar-Bereg,18,HU,715593,48,22.16667,57654,
HU.20,Jasz-Nagykun-Szolnok,20,HU,719637,47.25,20.5,43622,
HU.11,Heves,11,HU,720002,47.83333,20.25,31946,
HU.10,Hajdu-Bihar,10,HU,720293,47.41667,21.5,545641,
HU.06,Csongrad,06,HU,721589,46.41667,20.25,423751,
HU.04,Borsod-Abauj-Zemplen,04,HU,722064,48.25,21,718951,
HU.03,Bekes County,03,HU,722433,46.8,21,376657,
HU.24,Zala,24,HU,3042613,46.66667,16.83333,293443,
HU.23,Veszprem,23,HU,3042925,47.16667,17.66667,36376,
HU.22,Vas,22,HU,3043047,47.16667,16.75,263251,
HU.21,Tolna,21,HU,3043845,46.5,18.58333,24966,
HU.17,Somogy,17,HU,3045226,46.41667,17.58333,328496,
HU.16,Pest,16,HU,3046431,47.41667,19.33333,12139,
HU.14,Nograd,14,HU,3047348,48,19.58333,2133,
HU.12,Komarom-Esztergom,12,HU,3049518,47.58333,18.33333,31536,
HU.09,Gyor-Moson-Sopron,09,HU,3051977,47.66667,17.25,442667,
HU.08,Fejer,08,HU,3053028,47.16667,18.58333,428711,
HU.05,Budapest,05,HU,3054638,47.5,19.08333,1696128,96
HU.02,Baranya,02,HU,3055399,46.08333,18.25,3966,
HU.01,Bacs-Kiskun,01,HU,3055744,46.5,19.41667,534,
ID.26,North Sumatra,26,ID,1213642,2,99,963873,
ID.01,Aceh,01,ID,1215638,4,97,474885,
ID.10,Yogyakarta,10,ID,1621176,-7.8008,110.34393,3665448,
ID.32,South Sumatra,32,ID,1626196,-2.75,103.83333,7743794,
ID.24,West Sumatra,24,ID,1626197,-1,100.5,514112,
ID.31,North Sulawesi,31,ID,1626229,1.25,124.83333,227596,
ID.22,Southeast Sulawesi,22,ID,1626230,-4.3935,122.2149,2232586,
ID.21,Central Sulawesi,21,ID,1626231,-0.9166,122.3538,26359,
ID.38,South Sulawesi,38,ID,1626232,-4.33333,120.25,834776,
ID.37,Riau,37,ID,1629652,0.5005,101.749,5714477,
ID.18,East Nusa Tenggara,18,ID,1633791,-8.65738,121.07937,57746,
ID.17,West Nusa Tenggara,17,ID,1633792,-8.74,117.5333,45212,
ID.28,Maluku,28,ID,1636627,-3.23846,130.14527,153142,
ID.15,Lampung,15,ID,1638535,-5,105,4817226,
ID.14,East Kalimantan,14,ID,1641897,0.5,116.5,3553143,
ID.13,Central Kalimantan,13,ID,1641898,-2,113.5,221289,
ID.12,South Kalimantan,12,ID,1641899,-2.5,115.5,3626616,
ID.11,West Kalimantan,11,ID,1641900,0,110.5,4395983,
ID.08,East Java,08,ID,1642668,-7.7394,112.5099,222177,
ID.07,Central Java,07,ID,1642669,-7.5,110,3487148,
ID.30,West Java,30,ID,1642672,-6.75,107.5,45278744,
ID.05,Jambi,05,ID,1642856,-1.5,103,324961,
ID.04,Jakarta,04,ID,1642907,-6.2182,106.8584,995316,
ID.36,Papua,36,ID,1643012,-4.75,138,2833381,
ID.03,Bengkulu,03,ID,1649147,-3.79965,102.26683,1828291,100
ID.02,Bali,02,ID,1650535,-8.5,115,389757,
ID.33,Banten,33,ID,1923045,-6.5,106.25,1632166,
ID.34,Gorontalo,34,ID,1923046,0.693,122.4704,14164,
ID.35,Bangka-Belitung Islands,35,ID,1923047,-2.66667,106.66667,1276873,
ID.29,North Maluku,29,ID,1958070,0.62621,127.84241,13887,
ID.39,West Papua,39,ID,1996549,-0.86531,134.06118,76422,
ID.41,West Sulawesi,41,ID,1996550,-2.5,119.3333,1158651,
ID.40,Riau Islands,40,ID,1996551,0.63333,107.01868,1747812,
ID.42,North Kalimantan,42,ID,8604684,3.35989,116.53198,738163,
IE.C,Connaught,C,IE,7521313,53.87,-8.63333,542547,
IE.L,Leinster,L,IE,7521314,53.16667,-7.02121,254814,
IE.M,Munster,M,IE,7521315,52.34333,-8.71667,124688,
IE.U,Ulster,U,IE,7521316,54.92732,-7.9395,211164,
IL.06,Jerusalem,06,IL,293198,31.75,35,8893,
IL.05,Tel Aviv,05,IL,293396,32.08414,34.79995,12216,
IL.04,Haifa,04,IL,294800,32.58333,35,9267,
IL.03,Northern District,03,IL,294824,32.86667,35.46667,1197985,
IL.02,Central District,02,IL,294904,32.08333,34.91667,18549,
IL.01,Southern District,01,IL,294952,30.66667,34.83333,11466,
IL.WE,Judea and Samaria Area,WE,IL,11821181,32.10578,35.18635,47,
IM.9782164,Andreas,9782164,IM,9782164,54.36742,-4.44251,1381,
IM.9782165,Arbory,9782165,IM,9782165,54.1009,-4.67743,1747,
IM.9782166,Ballaugh,9782166,IM,9782166,54.31278,-4.54225,142,
IM.9782167,Braddan,9782167,IM,9782167,54.16319,-4.5062,3586,
IM.9782168,Bride,9782168,IM,9782168,54.38311,-4.39088,418,
IM.9782169,Castletown,9782169,IM,9782169,54.07463,-4.6582,397,
IM.9782170,Douglas,9782170,IM,9782170,54.15442,-4.48452,28939,
IM.9782171,German,9782171,IM,9782171,54.22317,-4.6291,966,
IM.9782172,Jurby,9782172,IM,9782172,54.36276,-4.51838,659,
IM.9782173,Laxey,9782173,IM,9782173,54.2312,-4.40402,1768,
IM.9782176,Lezayre,9782176,IM,9782176,54.31734,-4.41985,1237,
IM.9782180,Lonan,9782180,IM,9782180,54.21491,-4.43264,1579,
IM.9782182,Malew,9782182,IM,9782182,54.10563,-4.63125,2262,
IM.9782183,Marown,9782183,IM,9782183,54.1739,-4.57392,286,
IM.9782184,Maughold,9782184,IM,9782184,54.29762,-4.31986,985,
IM.9782185,Michael,9782185,IM,9782185,54.28326,-4.58993,164,
IM.9782186,Onchan,9782186,IM,9782186,54.17478,-4.45521,9172,
IM.9782187,Patrick,9782187,IM,9782187,54.20486,-4.69314,1294,
IM.9782188,Peel,9782188,IM,9782188,54.22175,-4.68794,593,
IM.9782189,Port Erin,9782189,IM,9782189,54.08523,-4.74987,353,
IM.9782190,Port St Mary,9782190,IM,9782190,54.07589,-4.7397,1953,
IM.9782191,Ramsey,9782191,IM,9782191,54.32179,-4.38878,739,
IM.9782192,Rushen,9782192,IM,9782192,54.06223,-4.77974,1591,
IM.9782193,Santon,9782193,IM,9782193,54.10567,-4.55701,691,
IN.28,West Bengal,28,IN,1252881,24,88,91276115,
IN.36,Uttar Pradesh,36,IN,1253626,27.25,80.75,199812341,
IN.26,Tripura,26,IN,1254169,24,92,3673917,
IN.40,Telangana,40,IN,1254788,17.83333,79.08333,35193978,
IN.25,Tamil Nadu,25,IN,1255053,11,78.33333,721473,
IN.29,Sikkim,29,IN,1256312,27.75,88.5,61577,
IN.24,Rajasthan,24,IN,1258899,26.58333,73.83333,68548437,
IN.23,Punjab,23,IN,1259223,30.91667,75.41667,27743338,
IN.22,Puducherry,22,IN,1259424,11.93333,79.81667,1247953,
IN.21,Odisha,21,IN,1261029,20.5,84.41667,41974218,
IN.20,Nagaland,20,IN,1262271,26.08333,94.5,197852,
IN.31,Mizoram,31,IN,1262963,23,93,19726,
IN.18,Meghalaya,18,IN,1263207,25.5,91.33333,2966889,
IN.17,Manipur,17,IN,1263706,25,94,2855794,
IN.16,Maharashtra,16,IN,1264418,19.5,76,112374333,
IN.35,Madhya Pradesh,35,IN,1264542,23.5,78.5,7262689,
IN.14,Laccadives,14,IN,1265206,10.93896,72.28665,64473,
IN.13,Kerala,13,IN,1267254,10.41667,76.5,334661,
IN.19,Karnataka,19,IN,1267701,14.66667,75.83333,6195297,
IN.12,Jammu and Kashmir,12,IN,1269320,33.5329,75.40781,12258433,
IN.11,Himachal Pradesh,11,IN,1270101,31.91667,77.25,686462,
IN.10,Haryana,10,IN,1270260,29.25,76.33333,25351462,
IN.09,Gujarat,09,IN,1270770,23,71.75,6439692,
IN.33,Goa,33,IN,1271157,15.33333,74.08333,1458545,
IN.07,Delhi,07,IN,1273293,28.6667,77.1,16787941,
IN.05,Chandigarh,05,IN,1274744,30.72778,76.77778,15545,
IN.34,Bihar,34,IN,1275715,25.75,85.75,1499452,
IN.03,Assam,03,IN,1278253,26,93,3125576,
IN.30,Arunachal Pradesh,30,IN,1278341,27.06,93.37,1383727,
IN.02,Andhra Pradesh,02,IN,1278629,15.83333,79.75,49386799,
IN.01,Andaman and Nicobar,01,IN,1278647,11.70065,92.67517,38581,
IN.37,Chhattisgarh,37,IN,1444364,21.5,82,25545198,
IN.38,Jharkhand,38,IN,1444365,23.75,85.5,32988134,
IN.39,Uttarakhand,39,IN,1444366,30.25,79.25,186292,
IN.41,Ladakh,41,IN,12096464,34.09712,77.34688,275,
IN.52,Dadra and Nagar Haveli and Daman and Diu,52,IN,12165662,20.42587,72.85112,585764,
IQ.02,Basra,02,IQ,89341,30.41667,47.41667,45,
IQ.16,Wasit,16,IQ,89693,32.75,45.41667,145,
IQ.18,Salah ad Din,18,IQ,91695,34.5,43.65,132674,
IQ.15,Nineveh,15,IQ,92877,36.08333,42.5,327422,
IQ.14,Maysan,14,IQ,93540,31.9,47.06667,9714,
IQ.12,Muhafazat Karbala',12,IQ,94823,32.5,43.83333,12,
IQ.11,Arbil,11,IQ,95445,36.33333,44.2,2,
IQ.10,Diyala,10,IQ,96965,34,45,1224,
IQ.09,Dhi Qar,09,IQ,97019,31.25,46.25,1386335,
IQ.08,Duhok,08,IQ,97270,37.06667,43.13333,1356415,
IQ.07,Baghdad,07,IQ,98180,33.31667,44.36667,14,
IQ.06,Babil,06,IQ,98227,32.53333,44.61667,195,
IQ.13,Kirkuk,13,IQ,98410,35.36667,44.13333,1395614,
IQ.05,Sulaymaniyah,05,IQ,98465,35.58333,45.33333,1552,
IQ.17,An Najaf,17,IQ,98862,31.25,43.83333,14,
IQ.04,Al Qadisiyah,04,IQ,99022,31.91667,45.08333,98192,
IQ.03,Al Muthanna,03,IQ,99032,30.25,45.33333,9191,
IQ.01,Al Anbar,01,IQ,99592,33.54402,41.31751,19614,
IQ.19,Halabja Governorate,19,IQ,12218240,35.18445,45.99333,,
IR.26,Tehran,26,IR,110791,35.66667,51.41667,13267637,
IR.36,Zanjan,36,IR,111452,36.5,48.33333,157461,
IR.40,Yazd,40,IR,111821,32.5,55.58333,1138533,
IR.25,Semnan,25,IR,116401,35.5,55,7236,
IR.35,Mazandaran,35,IR,124544,36.25,52.33333,3283582,
IR.34,Markazi,34,IR,124763,34.33333,49.83333,1429475,
IR.23,Lorestan Province,23,IR,125605,33.5,48.5,176649,
IR.16,Kordestan,16,IR,126584,35.66667,47,16311,
IR.05,Kohgiluyeh and Boyer-Ahmad,05,IR,126878,30.83333,50.66667,71352,
IR.15,Khuzestan,15,IR,127082,31.5,49,47159,
IR.13,Kermanshah,13,IR,128222,34.41667,46.75,1952434,
IR.29,Kerman,29,IR,128231,29.75,57.25,3164718,
IR.10,Ilam Province,10,IR,130801,33.16667,47,58158,
IR.11,Hormozgan,11,IR,131222,27.75,56.5,1776415,
IR.09,Hamadan,09,IR,132142,34.83333,48.58333,1738234,
IR.08,Gilan,08,IR,133349,37.16667,49.5,253696,
IR.07,Fars,07,IR,134766,29,53,4851274,
IR.03,Chaharmahal and Bakhtiari,03,IR,139677,32.16667,50.75,947763,
IR.22,Bushehr,22,IR,139816,28.75,51.5,11634,
IR.33,East Azerbaijan,33,IR,142549,38,46.75,399652,
IR.01,West Azerbaijan,01,IR,142550,37.66667,45,3265219,
IR.32,Ardabil,32,IR,413931,38.5,48,12742,
IR.28,Isfahan,28,IR,418862,33,52.16667,51285,
IR.37,Golestan,37,IR,443792,37.25,55,1868819,
IR.38,Qazvin,38,IR,443793,36,49.75,1273761,
IR.39,Qom,39,IR,443794,34.75,51,1292283,
IR.04,Sistan and Baluchestan,04,IR,1159456,28.5,60.5,277514,
IR.41,South Khorasan Province,41,IR,6201374,32.5,59.5,768898,
IR.42,Razavi Khorasan,42,IR,6201375,35.25,59,643451,
IR.43,North Khorasan,43,IR,6201376,37.5,57,86392,
IR.44,Alborz Province,44,IR,7648907,36.01117,50.80956,27124,
IS.41,Northwest,41,IS,3337403,65.33333,-20,781,
IS.40,Northeast,40,IS,3337404,65.5,-17,28618,
IS.38,East,38,IS,3337405,65,-15,153,
IS.42,South,42,IS,3337406,64,-19,23311,
IS.39,Capital Region,39,IS,3426182,64.16667,-21.66667,2968,
IS.43,Southern Peninsula,43,IS,3426183,63.91667,-22.25,23,
IS.45,West,45,IS,3426184,64.75,-21.83333,153,
IS.44,Westfjords,44,IS,3426185,65.66667,-22.5,73,
IT.15,Sicily,15,IT,2523119,37.75,14.25,4999891,
IT.14,Sardinia,14,IT,2523228,40,9,1639591,
IT.03,Calabria,03,IT,2525468,39,16.5,1947131,
IT.20,Veneto,20,IT,3164604,45.5,11.75,49691,
IT.19,Aosta Valley,19,IT,3164857,45.75,7.25,125666,
IT.18,Umbria,18,IT,3165048,43,12.5,88215,
IT.17,Trentino-Alto Adige,17,IT,3165244,46.5,11.33333,171636,
IT.16,Tuscany,16,IT,3165361,43.41667,11,3729641,
IT.13,Apulia,13,IT,3169778,41.00164,16.73378,429681,
IT.12,Piedmont,12,IT,3170831,45,8,4356522,
IT.11,Molise,11,IT,3173222,41.66667,14.5,35617,
IT.10,The Marches,10,IT,3174004,43.5,13.25,1525271,
IT.09,Lombardy,09,IT,3174618,45.66667,9.5,159681,
IT.08,Liguria,08,IT,3174725,44.5,8.83333,15564,
IT.07,Lazio,07,IT,3174976,42.07762,12.77878,587982,
IT.06,Friuli Venezia Giulia,06,IT,3176525,46,13,121522,
IT.05,Emilia-Romagna,05,IT,3177401,44.5444,10.98361,4459477,
IT.04,Campania,04,IT,3181042,40.91056,14.92053,581692,
IT.02,Basilicate,02,IT,3182306,40.5041,16.11396,562869,
IT.01,Abruzzo,01,IT,3183560,42.25,13.75,131158,
JE.3237072,St Clement,3237072,JE,3237072,49.16565,-2.07659,9221,
JE.3237073,St Saviour,3237073,JE,3237073,49.19517,-2.09238,1358,
JE.3237200,St. Brelade,3237200,JE,3237200,49.19056,-2.20056,1568,
JE.3237203,Grouville,3237203,JE,3237203,49.18472,-2.04917,4866,
JE.3237212,St Mary,3237212,JE,3237212,49.23583,-2.17222,1752,
JE.3237214,St Lawrence,3237214,JE,3237214,49.21528,-2.14,5418,
JE.3237221,St Peter,3237221,JE,3237221,49.21333,-2.18194,53,
JE.3237229,St Ouen,3237229,JE,3237229,49.22667,-2.20556,497,
JE.3237497,St John,3237497,JE,3237497,49.24694,-2.1375,2911,
JE.3237530,Trinity,3237530,JE,3237530,49.23472,-2.09,3156,
JE.3237716,St Martin,3237716,JE,3237716,49.21944,-2.04972,3763,
JE.3237864,St Helier,3237864,JE,3237864,49.18333,-2.1,33522,
JM.16,Westmoreland,16,JM,3488081,18.23333,-78.15,141393,
JM.15,Trelawny,15,JM,3488222,18.38333,-77.63333,75618,
JM.14,St. Thomas,14,JM,3488688,17.9,-76.43333,93328,
JM.13,St. Mary,13,JM,3488693,18.31667,-76.9,111377,
JM.12,St. James,12,JM,3488700,18.38333,-77.88333,18498,
JM.11,St. Elizabeth,11,JM,3488708,18.05,-77.78333,14549,
JM.10,Saint Catherine,10,JM,3488711,18.06667,-77.01667,529218,
JM.09,St Ann,09,JM,3488715,18.35,-77.26667,171739,
JM.08,St. Andrew,08,JM,3488716,18.06667,-76.75,555995,
JM.07,Portland,07,JM,3488997,18.13333,-76.53333,8787,
JM.04,Manchester,04,JM,3489586,18.05,-77.53333,191796,
JM.17,Kingston,17,JM,3489853,17.96667,-76.8,9822,
JM.02,Hanover,02,JM,3490145,18.41667,-78.13333,6662,
JM.01,Clarendon,01,JM,3490952,17.98333,-77.3,243857,
JO.19,Ma'an,19,JO,248380,30.33333,36.58333,1214,
JO.18,Irbid,18,JO,248944,32.5,35.83333,94269,
JO.17,Zarqa,17,JO,250092,32.08374,36.07773,918,
JO.12,Tafielah,12,JO,250199,30.75,35.58333,894,
JO.16,Amman,16,JO,250439,31.58369,36.33335,1972712,
JO.15,Mafraq,15,JO,250583,32.33333,37.91667,246783,
JO.09,Karak,09,JO,250625,31.16667,35.75,27335,
JO.02,Balqa,02,JO,250751,32,35.66667,495,
JO.20,Ajlun,20,JO,443120,32.33333,35.75,55,
JO.22,Jerash,22,JO,443121,32.25,35.91667,156585,
JO.21,Aqaba,21,JO,443122,29.75,35.33333,1392,
JO.23,Madaba,23,JO,443123,31.58333,35.66667,1319,
JP.46,Yamanashi,46,JP,1848649,35.61667,138.6,84522,
JP.45,Yamaguchi,45,JP,1848681,34.2,131.56667,144572,
JP.43,Wakayama,43,JP,1848938,33.91667,135.41667,989983,
JP.42,Toyama,42,JP,1849872,36.63926,137.26513,114239,
JP.41,Tottori,41,JP,1849890,35.4,133.85,584982,
JP.40,Tokyo,40,JP,1850144,35.6895,139.69171,12445327,
JP.39,Tokushima,39,JP,1850157,33.92176,134.23682,82418,
JP.38,Tochigi,38,JP,1850310,36.7,139.81667,217548,
JP.37,Shizuoka,37,JP,1851715,35.01667,138.33333,3774471,
JP.36,Shimane,36,JP,1852442,35.07693,132.56111,712336,
JP.35,Shiga,35,JP,1852553,35.21667,136.13333,142132,
JP.34,Saitama,34,JP,1853226,35.85721,139.64904,719817,
JP.33,Saga,33,JP,1853299,33.28904,130.11491,839458,
JP.32,Osaka,32,JP,1853904,34.68631,135.51968,8864228,
JP.47,Okinawa,47,JP,1854345,26.5,127.93333,1416587,
JP.31,Okayama,31,JP,1854381,34.90204,133.81018,194,
JP.30,Oita,30,JP,1854484,33.19899,131.43353,11596,
JP.29,Niigata,29,JP,1855429,37.52343,138.91748,2371,
JP.28,Nara,28,JP,1855608,34.68525,135.83289,1396849,
JP.27,Nagasaki,27,JP,1856156,33.23333,129.6,14794,
JP.26,Nagano,26,JP,1856210,36.13464,138.04077,2148425,
JP.25,Miyazaki,25,JP,1856710,32.2,131.3,1128412,
JP.23,Mie,23,JP,1857352,34.52123,136.38296,1855,
JP.22,Kyoto,22,JP,1857907,35.25,135.43333,2633428,
JP.21,Kumamoto,21,JP,1858419,32.61667,130.75,1812255,
JP.20,Kochi,20,JP,1859133,33.58333,133.36667,757914,
JP.19,Kanagawa,19,JP,1860291,35.41667,139.33333,99741,
JP.18,Kagoshima,18,JP,1860825,31.59303,130.99301,17346,
JP.17,Kagawa,17,JP,1860834,34.24717,133.99471,995465,
JP.15,Ishikawa,15,JP,1861387,36.77145,136.7705,1168929,
JP.13,Hyogo,13,JP,1862047,35.03333,134.81667,5582978,
JP.11,Hiroshima,11,JP,1862413,34.60673,132.78543,285799,
JP.10,Gunma,10,JP,1863501,36.50747,138.98235,21468,
JP.09,Gifu,09,JP,1863640,35.78333,137.05,274158,
JP.07,Fukuoka,07,JP,1863958,33.52813,130.66472,588483,
JP.06,Fukui,06,JP,1863983,35.85,136.21667,795437,
JP.05,Ehime,05,JP,1864226,33.61667,132.85,147675,
JP.01,Aichi,01,JP,1865694,35.18017,136.90656,74864,
JP.44,Yamagata,44,JP,2110554,38.4503,140.0997,1152,
JP.24,Miyagi,24,JP,2111888,38.44938,140.92624,2337514,
JP.16,Iwate,16,JP,2112518,39.6,141.35,13353,
JP.14,Ibaraki,14,JP,2112669,36.3,140.31667,2964141,
JP.08,Fukushima,08,JP,2112922,37.38158,140.22199,228752,
JP.04,Chiba,04,JP,2113014,35.60506,140.12333,62146,
JP.02,Akita,02,JP,2113124,39.75,140.4,1165,
JP.12,Hokkaido,12,JP,2130037,43.06451,141.3466,564723,
JP.03,Aomori,03,JP,2130656,40.7831,140.82827,1373164,
KE.55,West Pokot,55,KE,178145,1.75,35.25,51269,
KE.54,Wajir,54,KE,178440,1.75,40.01667,661941,
KE.52,Uasin Gishu,52,KE,178837,0.5,35.31667,894179,
KE.51,Turkana,51,KE,178914,3,35.5,855399,
KE.50,Trans Nzoia,50,KE,179068,1.045,34.979,818757,
KE.49,Tharaka District,49,KE,179380,-0.10094,38.02883,36533,
KE.48,Tana River,48,KE,179585,-1.53333,39.41667,2475,
KE.46,Siaya,46,KE,180320,0.105,34.302,84234,
KE.45,Samburu,45,KE,180782,1.33333,37.11667,223947,
KE.05,Nairobi Area,05,KE,184742,-1.28333,36.83333,3138369,
KE.38,Murang'a District,38,KE,185578,-0.684,36.994,942581,
KE.37,Mombasa,37,KE,186298,-4.02,39.66667,93937,
KE.35,Meru,35,KE,186824,0,37.518,135631,
KE.34,Marsabit,34,KE,187583,2.96667,37.6,291166,
KE.33,Mandera,33,KE,187895,3.36667,40.7,125756,
KE.29,Laikipia,29,KE,189794,0.33333,36.76667,399227,
KE.28,Kwale,28,KE,190106,-4.13333,39.2,649931,
KE.27,Kitui,27,KE,191037,-1.835,38.451,11279,
KE.26,Kisumu,26,KE,191242,-0.069,34.64,96899,
KE.25,Kisii,25,KE,191298,-0.75,34.83333,1152282,
KE.24,Kirinyaga,24,KE,191420,-0.5,37.33333,52854,
KE.23,Kilifi,23,KE,192064,-3.563,39.644,119735,
KE.22,Kiambu,22,KE,192709,-1.09,36.699,1623282,
KE.21,Kericho,21,KE,192898,-0.273,35.383,758339,
KE.20,Kakamega,20,KE,195271,0.334,34.797,166651,
KE.18,Isiolo,18,KE,196228,0.98333,38.53333,143294,
KE.16,Garissa,16,KE,197744,-0.172,40.041,6236,
KE.15,Embu,15,KE,198474,-0.425,37.531,516212,
KE.13,Busia,13,KE,199987,0.35,34.17,48875,
KE.12,Bungoma,12,KE,200066,0.66,34.639,163934,
KE.10,Baringo,10,KE,200573,0.66667,36,555561,
KE.43,Nyandarua,43,KE,7603036,-0.344,36.5,596268,
KE.53,Vihiga,53,KE,7667638,0.072,34.712,554622,
KE.30,Lamu,30,KE,7667643,-2.28,40.9,11539,
KE.31,Machakos,31,KE,7667644,-1.282,37.408,198584,
KE.32,Makueni,32,KE,7667645,-2.222,37.872,884527,
KE.14,Marakwet District,14,KE,7667646,0.99,35.55,369998,
KE.47,Taita Taveta,47,KE,7667652,-3.4,38.37,284657,
KE.19,Kajiado,19,KE,7667657,-2.131,36.878,687312,
KE.44,Nyeri,44,KE,7667661,-0.42,36.95,693558,
KE.17,Homa Bay,17,KE,7667665,-0.666,34.481,963794,
KE.11,Bomet,11,KE,7667666,-0.79,35.35,724186,
KE.36,Migori,36,KE,7667678,-0.982,34.409,128579,
KE.39,Nakuru,39,KE,7668902,-0.48402,36.17126,163325,
KE.41,Narok,41,KE,7668904,-1.24076,35.7356,8592,
KE.42,Nyamira District,42,KE,7806857,-0.75,35,598252,
KE.40,Nandi,40,KE,8051212,0.055,35.193,752965,
KG.08,Osh,08,KG,1346798,40,73,999576,
KG.09,Batken,09,KG,1463580,39.83333,71,4288,
KG.06,Talas,06,KG,1527297,42.33333,72,21653,
KG.04,Naryn,04,KG,1527590,41.43333,75.96667,269651,
KG.07,Issyk-Kul,07,KG,1528260,42,78,4372,
KG.01,Bishkek,01,KG,1528334,42.86667,74.6,896259,
KG.03,Jalal-Abad,03,KG,1529778,41.5,72.5,9363,
KG.02,Chuy,02,KG,1538652,42.41667,74.5,79438,
KG.10,Osh City,10,KG,10300944,40.54446,72.79387,2819,
KH.12,Pursat,12,KH,1821301,12.33333,103.66667,495776,
KH.29,Battambang,29,KH,1821310,12.91667,103.08333,136523,
KH.19,Takeo,19,KH,1821939,10.91667,104.83333,963747,
KH.18,Svay Rieng,18,KH,1821992,11.16667,105.83333,482785,
KH.17,Stung Treng,17,KH,1822028,13.75,106.25,29665,
KH.27,Otar Meanchey,27,KH,1822210,14.16667,103.5,185443,
KH.24,Siem Reap,24,KH,1822213,13.5,104,843191,
KH.23,Ratanakiri,23,KH,1822449,13.83333,107.11667,13526,
KH.14,Prey Veng,14,KH,1822609,11.36667,105.46667,947357,
KH.13,Preah Vihear,13,KH,1822676,13.75,105,153124,
KH.22,Phnom Penh,22,KH,1830103,11.57489,104.91394,231725,
KH.30,Pailin,30,KH,1830206,12.86667,102.6,7482,
KH.10,Mondolkiri,10,KH,1830306,12.75,107,6811,
KH.09,Kratie,09,KH,1830563,12.66667,106.08333,318523,
KH.26,Kep,26,KH,1830937,10.5125,104.31667,428,
KH.08,Koh Kong,08,KH,1831037,11.5,103.5,139722,
KH.07,Kandal,07,KH,1831095,11.41667,105,126585,
KH.21,Kampot,21,KH,1831111,10.83333,104.33333,627884,
KH.05,Kampong Thom,05,KH,1831124,12.83333,105,78398,
KH.04,Kampong Speu,04,KH,1831132,11.5,104.33333,777582,
KH.03,Kampong Chhnang,03,KH,1831166,12.16667,104.55,55671,
KH.02,Kampong Cham,02,KH,1831172,12.05,105.25,168694,
KH.28,Preah Sihanouk,28,KH,1899262,10.66667,103.75,243967,
KH.25,Banteay Meanchey,25,KH,1899273,13.75,103,67833,
KH.31,Tboung Khmum,31,KH,7647525,11.98,105.65,755,
KI.01,Gilbert Islands,01,KI,2110215,1.42,172.984,83683,
KI.02,Line Islands,02,KI,4030940,1.942,-157.475,889,
KI.03,Phoenix Islands,03,KI,7521379,-2.808,-171.678,41,
KM.03,Moheli,03,KM,921780,-12.34268,43.73623,38,
KM.02,Grande Comore,02,KM,921882,-11.58333,43.33333,345513,
KM.01,Anjouan,01,KM,922001,-12.25,44.41667,27255,
KN.15,Trinity Palmetto Point,15,KN,3575114,17.30667,-62.76374,1692,
KN.13,Middle Island,13,KN,3575164,17.35,-62.8,245,
KN.12,Saint Thomas Lowland,12,KN,3575165,17.16667,-62.6,1791,
KN.11,Saint Peter Basseterre,11,KN,3575168,17.31667,-62.71667,2262,
KN.10,Saint Paul Charlestown,10,KN,3575171,17.13456,-62.61473,1538,
KN.09,Saint Paul Capesterre,09,KN,3575172,17.4,-62.83333,1882,
KN.08,Saint Mary Cayon,08,KN,3575173,17.35,-62.73333,2994,
KN.07,Saint John Figtree,07,KN,3575175,17.11667,-62.6,29,
KN.06,Saint John Capesterre,06,KN,3575176,17.38333,-62.8,2859,
KN.05,Saint James Windwa,05,KN,3575177,17.16667,-62.56667,1529,
KN.04,Saint George Gingerland,04,KN,3575179,17.13333,-62.56667,2568,
KN.03,Saint George Basseterre,03,KN,3575180,17.29732,-62.70613,1292,
KN.02,Saint Anne Sandy Point,02,KN,3575183,17.36667,-62.83333,2849,
KN.01,Christ Church Nichola Town,01,KN,3575476,17.35,-62.76667,181,
KP.12,Pyongyang,12,KP,1871856,39.08333,125.83333,2514692,
KP.15,South Pyongan,15,KP,1871952,39.5,126.16667,451696,
KP.11,P'yongan-bukto,11,KP,1871954,40.05,125.26667,2728662,
KP.09,Kangwon-do,09,KP,1876101,38.73333,127.45,1477582,
KP.06,Hwanghae-namdo,06,KP,1876884,38.2,125.53333,231485,
KP.07,Hwanghae-bukto,07,KP,1876888,38.56667,126.3,2113672,
KP.03,Hamgyong-namdo,03,KP,1877450,40.23333,127.75,36613,
KP.13,Yanggang-do,13,KP,2039332,41.2,128.2,719269,
KP.17,Hamgyong-bukto,17,KP,2044245,41.83333,129.41667,2327362,
KP.01,Chagang-do,01,KP,2045265,40.75,126.5,129983,
KP.18,Rason,18,KP,2054927,42.33611,130.36639,196954,
KR.21,Ulsan,21,KR,1833742,35.56667,129.26667,116369,
KR.19,Daejeon,19,KR,1835224,36.33333,127.41667,1539154,
KR.15,Daegu,15,KR,1835327,35.8,128.55,2527566,
KR.11,Seoul,11,KR,1835847,37.58333,127,1349312,
KR.10,Busan,10,KR,1838519,35.13333,129.05,3525913,
KR.14,Gyeongsangbuk-do,14,KR,1841597,36.33333,128.75,278787,
KR.13,Gyeonggi-do,13,KR,1841610,37.6,127.25,1293,
KR.18,Gwangju,18,KR,1841808,35.16667,126.91667,1471324,
KR.06,Gangwon-do,06,KR,1843125,37.75,128.25,1542147,
KR.12,Incheon,12,KR,1843561,37.46178,126.70017,29898,
KR.17,Chungcheongnam-do,17,KR,1845105,36.5,127,23319,
KR.05,North Chungcheong,05,KR,1845106,36.82153,127.65685,1578934,
KR.16,Jeollanam-do,16,KR,1845788,34.75,127,192324,
KR.03,Jeollabuk-do,03,KR,1845789,35.75,127.25,1871747,
KR.01,Jeju-do,01,KR,1846265,33.41667,126.5,64771,
KR.20,Gyeongsangnam-do,20,KR,1902028,35.25,128.25,334443,
KR.22,Sejong-si,22,KR,8394437,36.59296,127.29239,122263,
KW.08,Hawalli,08,KW,285628,29.3,48.05,714876,
KW.02,Al Asimah,02,KW,285788,29.33333,47.91667,5111,
KW.05,Muhafazat al Jahra',05,KW,285798,29.5,47.5,37316,
KW.07,Al Farwaniyah,07,KW,285816,29.25,47.91667,64375,
KW.04,Al Ahmadi,04,KW,285841,28.91667,48,43923,
KW.09,Mubarak al Kabir,09,KW,7733358,29.225,48.05,223716,
KY.10346796,George Town,10346796,KY,10346796,19.28908,-81.36981,2774,
KY.10375968,West Bay,10375968,KY,10375968,19.38039,-81.38869,11269,
KY.10375969,Bodden Town,10375969,KY,10375969,19.2821,-81.25797,1341,
KY.10375970,North Side,10375970,KY,10375970,19.34824,-81.20849,1437,
KY.10375971,East End,10375971,KY,10375971,19.29976,-81.11052,1369,
KY.10375972,Sister Island,10375972,KY,10375972,19.72195,-79.78958,2547,
KZ.07,Batys Qazaqstan,07,KZ,607847,49.83333,50.66667,618261,
KZ.09,Mangghystau,09,KZ,608879,44,54,59676,
KZ.06,Atyrau,06,KZ,609862,47,52,556388,
KZ.04,Aqtoebe,04,KZ,610688,48.58333,58.58333,79736,
KZ.15,East Kazakhstan,15,KZ,1517381,48.83333,81.5,1464269,
KZ.03,Aqmola,03,KZ,1518003,51.83333,69.91667,733113,
KZ.16,North Kazakhstan,16,KZ,1519367,54.33333,69.5,57943,
KZ.11,Pavlodar Region,11,KZ,1520239,52.08333,76.25,75564,
KZ.14,Qyzylorda,14,KZ,1521406,45,65,72799,
KZ.13,Qostanay,13,KZ,1521671,51.5,64,88227,
KZ.12,Karaganda,12,KZ,1523401,48.25,71,1363638,
KZ.17,Zhambyl,17,KZ,1524444,44.33333,72.08333,171645,
KZ.10,South Kazakhstan,10,KZ,1524787,43.25,68.66667,28948,
KZ.02,Almaty,02,KZ,1526395,43.26667,76.9,1472866,
KZ.01,Almaty Oblysy,01,KZ,1537162,44.5,78,1949837,
KZ.1537272,Shymkent,1537272,KZ,1537272,42.31667,69.58333,1,
KZ.08,Baikonur,08,KZ,1538316,45.65,63.28333,36175,
KZ.05,Nur-Sultan,05,KZ,1538317,51.13333,71.43333,835153,
LA.14,Xiangkhoang,14,LA,1652077,19.46667,103.5,3757,
LA.13,Xiagnabouli,13,LA,1652210,18.5,101.5,3822,
LA.27,Vientiane,27,LA,1652238,18.75,102.41667,388833,
LA.20,Savannahkhet,20,LA,1653315,16.5,105.75,769177,
LA.19,Salavan,19,LA,1653333,15.75,106.25,3366,
LA.18,Phongsali,18,LA,1653893,21.75,102.33333,1999,
LA.07,Oudomxai,07,LA,1654491,20.16667,101.5,2753,
LA.17,Louangphabang,17,LA,1655558,20.25,102.66667,4712,
LA.16,Loungnamtha,16,LA,1655561,20.91667,101.33333,151,
LA.15,Khammouan,15,LA,1656538,17.5,105.33333,3588,
LA.03,Houaphan,03,LA,1657114,20.5,104,286383,
LA.02,Champasak,02,LA,1657818,14.75,106,5756,
LA.01,Attapu,01,LA,1665045,14.66667,107,1143,
LA.26,Xekong,26,LA,1904615,15.5,107,836,
LA.22,Bokeo,22,LA,1904616,20.5,100.5,1497,
LA.23,Bolikhamsai,23,LA,1904617,18.5,104.33333,2149,
LA.24,Vientiane Prefecture,24,LA,1904618,18.08333,102.66667,698254,
LA.28,Xaisomboun,28,LA,11395958,18.90271,103.09467,85,
LB.05,Mont-Liban,05,LB,273607,33.91667,35.66667,1679229,
LB.04,Beyrouth,04,LB,276780,33.88333,35.5,25,
LB.09,Liban-Nord,09,LB,278297,34.33333,35.91667,899339,
LB.06,South Governorate,06,LB,279894,33.41667,35.33333,5,
LB.08,Beqaa,08,LB,280282,33.66667,35.83333,75,
LB.07,Nabatiye,07,LB,444191,33.25,35.5,92,
LB.10,Aakkar,10,LB,6201370,34.53333,36.16667,198174,
LB.11,Baalbek-Hermel,11,LB,6201371,34.20833,36.3,157,
LC.10,Vieux-Fort,10,LC,3576413,13.78407,-60.96588,15132,
LC.09,Soufriere,09,LC,3576441,13.84541,-61.02493,7935,
LC.08,Micoud,08,LC,3576567,13.82041,-60.94563,16143,
LC.07,Laborie,07,LC,3576662,13.7867,-61.00309,7185,
LC.06,Gros-Islet,06,LC,3576685,14.05366,-60.94494,25,
LC.05,Dennery,05,LC,3576764,13.92507,-60.91919,13179,
LC.04,Choiseul,04,LC,3576794,13.80157,-61.02819,5933,
LC.03,Castries,03,LC,3576810,13.98404,-60.97,684,
LC.01,Anse-la-Raye,01,LC,3576891,13.91207,-61.01566,6394,
LC.12,Canaries,12,LC,11351387,13.90466,-61.06326,1862,
LI.11,Vaduz,11,LI,3042031,47.14539,9.52655,5197,
LI.10,Triesenberg,10,LI,3042034,47.12663,9.55962,2689,
LI.09,Triesen,09,LI,3042036,47.08381,9.55517,471,
LI.08,Schellenberg,08,LI,3042038,47.23431,9.55103,14,
LI.07,Schaan,07,LI,3042042,47.17433,9.52401,5748,
LI.06,Ruggell,06,LI,3042047,47.24502,9.53323,1862,
LI.05,Planken,05,LI,3042050,47.18015,9.55994,377,
LI.04,Mauren,04,LI,3042056,47.21513,9.55898,3626,
LI.03,Gamprin,03,LI,3042063,47.21986,9.50995,1268,
LI.02,Eschen,02,LI,3042069,47.20178,9.53588,48,
LI.01,Balzers,01,LI,3042074,47.0677,9.50408,4447,
LK.36,Western,36,LK,1223421,6.83333,80.08333,582171,
LK.35,Uva,35,LK,1225265,6.98472,81.05639,12598,
LK.34,Southern,34,LK,1227618,6.16667,80.75,2464732,
LK.33,Sabaragamuwa,33,LK,1228435,6.75,80.5,191888,
LK.32,North Western,32,LK,1232860,7.75,80.16667,23775,
LK.30,North Central,30,LK,1232870,8.33333,80.5,1259567,
LK.29,Central,29,LK,1249296,7.33333,80.75,2558716,
LK.38,Northern Province,38,LK,7671049,9.16667,80.41667,158762,
LK.37,Eastern Province,37,LK,8133521,8.60614,81.20201,15,
LR.10,Sinoe,10,LR,2273898,5.33333,-8.76667,14932,
LR.09,Nimba,09,LR,2274688,6.81667,-8.78333,46226,
LR.14,Montserrado,14,LR,2274890,6.5,-10.56667,114486,
LR.13,Maryland,13,LR,2275099,4.75,-7.75,13644,
LR.20,Lofa,20,LR,2275344,8.03333,-9.85,339112,
LR.19,Grand Gedeh,19,LR,2276622,5.96667,-8.2,14861,
LR.12,Grand Cape Mount,12,LR,2276627,7.13333,-11.05,12955,
LR.11,Grand Bassa,11,LR,2276630,6.23333,-9.83333,224839,
LR.01,Bong,01,LR,2278292,6.96667,-9.63333,328919,
LR.15,Bomi,15,LR,2278324,6.73333,-10.81667,84119,
LR.16,Grand Kru,16,LR,2588490,4.78333,-8.21667,5716,
LR.17,Margibi,17,LR,2588491,6.55,-10.31667,199689,
LR.18,River Cess,18,LR,2588492,5.91667,-9.36667,72,
LR.21,Gbarpolu,21,LR,2593119,7.36667,-10.31667,83758,
LR.22,River Gee,22,LR,2593120,5.31667,-7.8,66789,
LS.19,Thaba-Tseka,19,LS,932011,-29.56667,28.6,158144,
LS.18,Quthing,18,LS,932184,-30.36667,28,2288,
LS.17,Qacha's Nek,17,LS,932219,-30,28.75,71876,
LS.16,Mokhotlong,16,LS,932418,-29.21667,29.03333,14944,
LS.15,Mohale's Hoek District,15,LS,932439,-30.06667,27.8,174924,
LS.14,Maseru,14,LS,932506,-29.58333,27.83333,316155,
LS.13,Mafeteng,13,LS,932615,-29.8041,27.50262,35161,
LS.12,Leribe,12,LS,932700,-29.03651,28.25266,414314,
LS.11,Butha-Buthe,11,LS,932888,-28.8,28.56667,18848,
LS.10,Berea,10,LS,932932,-29.16667,27.91667,66863,
LT.56,Alytus,56,LT,864389,54.16667,24.16667,149879,
LT.57,Kaunas,57,LT,864477,55.16667,24,58741,
LT.58,Klaipeda County,58,LT,864478,55.66667,21.33333,329146,
LT.59,Marijampole County,59,LT,864479,54.75,23.25,15497,
LT.60,Panevezys,60,LT,864480,55.91667,24.83333,23882,
LT.61,Siauliai,61,LT,864481,56,23.33333,28587,
LT.62,Taurage County,62,LT,864482,55.33333,22.5,14683,
LT.63,Telsiai,63,LT,864483,56.08333,22.16667,145564,
LT.64,Utena,64,LT,864484,55.5,25.75,13613,
LT.65,Vilnius,65,LT,864485,54.83333,25.33333,8644,
LU.WI,Wiltz,WI,LU,2959975,49.94698,5.907,16735,
LU.VD,Vianden,VD,LU,2960020,49.93256,6.16618,3147,
LU.RM,Remich,RM,LU,2960152,49.54323,6.31779,17882,
LU.RD,Redange,RD,LU,2960161,49.79716,5.88731,1447,
LU.ME,Mersch,ME,LU,2960275,49.75636,6.12717,24212,
LU.LU,Luxembourg,LU,LU,2960315,49.61427,6.17289,18267,
LU.GR,Grevenmacher,GR,LU,2960514,49.68341,6.34307,3888,
LU.ES,Esch-sur-Alzette,ES,LU,2960599,49.5,6.03333,17682,
LU.EC,Echternach,EC,LU,2960629,49.78872,6.39024,18899,
LU.DI,Diekirch,DI,LU,2960656,49.86155,6.1475,32543,
LU.CL,Clervaux,CL,LU,2960683,50.07852,6.02236,13237,
LU.CA,Capellen,CA,LU,2960696,49.63678,5.97031,37873,
LV.33,Ventspils Rajons,33,LV,454307,57.33333,21.83333,1453,
LV.32,Ventspils,32,LV,454311,57.40611,21.60167,41998,
LV.31,Valmiera,31,LV,454564,57.53499,25.42786,6111,
LV.30,Valka,30,LV,454571,57.58333,25.91667,33348,
LV.29,Tukuma novads,29,LV,454771,56.91667,23,52357,
LV.28,Talsi Municipality,28,LV,454968,57.33333,22.58333,48425,
LV.27,Saldus Rajons,27,LV,455888,56.66667,22.5,37892,
LV.25,Riga,25,LV,456173,56.97778,24.12167,627,
LV.24,Rezeknes Novads,24,LV,456197,56.5,27.16667,41662,
LV.23,Rezekne,23,LV,456203,56.51028,27.34,41662,
LV.22,Preilu novads,22,LV,456528,56.27326,26.6939,4536,
LV.21,Ogre,21,LV,457061,56.87581,25.10307,6112,
LV.20,Madona Municipality,20,LV,457712,56.83333,26.25,4593,
LV.19,Ludzas novads,19,LV,457773,56.5,27.75,34113,
LV.18,Limbazu novads,18,LV,457889,57.58333,24.66667,3918,
LV.16,Liepaja,16,LV,457955,56.54194,21.03667,8526,
LV.15,Kuldigas novads,15,LV,458459,56.83333,22,37119,
LV.14,Kraslavas novads,14,LV,458621,55.92265,27.31983,35778,
LV.13,Jurmala,13,LV,459202,56.95198,23.69531,566,
LV.12,Jelgavas novads,12,LV,459278,56.58333,23.75,3654,
LV.11,Jelgava,11,LV,459281,56.65111,23.71639,63534,
LV.10,Jekabpils Municipality,10,LV,459282,56.33333,25.83333,53473,
LV.09,Gulbenes novads,09,LV,459664,57.16667,26.66667,27424,
LV.08,Dobeles novads,08,LV,460311,56.58333,23.16667,24521,
LV.06,Daugavpils,06,LV,460414,55.88139,26.53889,9628,105
LV.05,Cesu Rajons,05,LV,460569,57.24225,25.4132,5889,
LV.04,Bauskas Rajons,04,LV,461112,56.5,24.33333,51666,
LV.03,Balvu Novads,03,LV,461160,57.03254,27.43968,2978,
LV.02,Aluksnes Novads,02,LV,461525,57.41667,27,25667,
LV.01,Aizkraukles novads,01,LV,461613,56.60184,25.25208,469,
LV.95,Marupe,95,LV,7628319,56.88639,23.95889,13958,
LV.A2,Olaine,A2,LV,7628320,56.79139,23.94806,285,
LV.80,Kekava,80,LV,7628322,56.79806,24.22639,2945,
LV.C3,Salaspils,C3,LV,7628323,56.87444,24.35056,2281,
LV.34,Adazi,34,LV,7628327,57.10917,24.37944,9342,
LV.90,Livani,90,LV,7628341,56.37139,26.35056,14292,
LV.E1,Varaklani,E1,LV,7628342,56.63333,26.63444,3941,
LV.B5,Ropazu,B5,LV,7628359,56.96639,24.59639,6832,
LV.C7,Sigulda,C7,LV,7628362,57.12972,24.86389,17579,
LV.C5,Saulkrastu,C5,LV,7628366,57.25139,24.42611,682,
LV.D1,Smiltene,D1,LV,7628380,57.40667,26.01083,14376,
LV.DN,South Kurzeme Municipality,DN,LV,12276857,56.53624,21.17443,33364,
LV.AN,Augsdaugava Municipality,AN,LV,12276858,55.95973,26.34451,25927,
LY.70,Darnah,70,LY,87204,31.83333,22.66667,163351,
LY.69,Banghazi,69,LY,88318,32.08723,20.18738,111,
LY.66,Al Marj,66,LY,88904,31.78333,21.2,85315,
LY.65,Al Kufrah,65,LY,88932,23.76667,22.21667,5569,
LY.63,Al Jabal al Akhdar,63,LY,443289,32.15,21.81667,2618,
LY.77,Tripoli,77,LY,2210245,32.56667,13.4,16545,
LY.76,Surt,76,LY,2210553,30.03333,16.85,17763,
LY.75,Sabha,75,LY,2212774,26.9,14.96667,134162,
LY.74,Nalut,74,LY,2214432,30.18333,10.83333,93848,
LY.73,Murzuq,73,LY,2214602,24.6,15.6,78621,
LY.72,Misratah,72,LY,2214845,32.31035,15.07324,55938,
LY.71,Ghat,71,LY,2217350,25.91667,10.58333,23518,
LY.68,Az Zawiyah,68,LY,2218972,32.46667,12.51667,29993,
LY.78,Wadi ash Shati',78,LY,2219413,27.8,12.73333,78532,
LY.64,Al Jufrah,64,LY,2219944,27.73333,17.05,47538,
LY.67,An Nuqat al Khams,67,LY,2593778,32.63333,11.9,287662,
LY.79,Al Butnan,79,LY,7602688,29.93333,24.03333,159536,
LY.80,Jabal al Gharbi,80,LY,7602689,30.46666,13,34159,
LY.81,Al Jafarah,81,LY,7602690,32.5,12.91667,451175,
LY.82,Al Marqab,82,LY,7602691,32.16667,14.16667,43222,
LY.83,Al Wahat,83,LY,7602692,28.66667,21.38333,179155,
LY.84,Wadi al Hayat,84,LY,7602693,26.31667,12.7,76858,
MA.01,Tanger-Tetouan-Al Hoceima,01,MA,11281874,35.72626,-5.774,3556729,
MA.02,Oriental,02,MA,11281875,34.82696,-2.12585,2314346,
MA.03,Fes-Meknes,03,MA,11281876,34.02831,-5.00565,4236892,
MA.04,Rabat-Sale-Kenitra,04,MA,11281877,34.00106,-6.78028,458866,
MA.05,Beni Mellal-Khenifra,05,MA,11281878,32.3264,-6.3089,252776,
MA.06,Casablanca-Settat,06,MA,11281879,33.47804,-7.43225,6861739,
MA.07,Marrakesh-Safi,07,MA,11281880,31.63488,-7.98569,452569,
MA.08,Draa-Tafilalet,08,MA,11281881,31.69156,-4.41925,16358,
MA.09,Souss-Massa,09,MA,11281882,30.42539,-9.56566,2676847,
MA.10,Guelmim-Oued Noun,10,MA,11281884,29.00173,-10.0391,433757,
MA.11,Laayoune-Sakia El Hamra,11,MA,11281885,27.8583,-12.20787,367758,
MA.12,Dakhla-Oued Ed-Dahab,12,MA,11281886,23.75128,-15.91782,142955,
MC.00,Municipality of Monaco,00,MC,3319178,43.73216,7.41981,322,
MD.73,Raionul Edinet,73,MD,617077,48.16667,27.25,825,
MD.92,Ungheni,92,MD,617181,47.33333,27.91667,1172,
MD.91,Telenesti,91,MD,617255,47.58333,28.5,68461,
MD.90,Taraclia,90,MD,617264,45.91667,28.58333,42282,
MD.88,Stefan-Voda,88,MD,617283,46.5,29.66667,736,
MD.89,Straseni,89,MD,617301,47.16667,28.58333,915,
MD.87,Raionul Soroca,87,MD,617366,48.16667,28.25,11,
MD.84,Riscani,84,MD,617483,47.92778,27.53509,66927,
MD.83,Rezina,83,MD,617501,47.66667,28.83333,46493,
MD.82,Orhei,82,MD,617639,47.41667,28.83333,1258,
MD.81,Raionul Ocnita,81,MD,617656,48.41667,27.5,55353,
MD.59,Anenii Noi,59,MD,617715,46.91667,29.25,8787,
MD.80,Nisporeni,80,MD,617754,47.08333,28.16667,63159,
